ws_id;ws_name;ws_origin;ws_lat;ws_lon
5e91e1c214daf81260ebba53;Gijet Town;NMA-EIAR;13.3154;39.17438
5e91e1c214daf81260ebba54;Samira Town;NMA-EIAR;13.19914;39.20603
5e91e1c214daf81260ebba55;Adi Gudom Town;NMA-EIAR;13.24906;39.50185
5e91e1c214daf81260ebba56;HiwaneTown;NMA-EIAR;13.10392;39.49487
5e91e1c214daf81260ebba57;Adei Sheou;NMA-EIAR;12.93633;39.51397
5e91e1c214daf81260ebba58;Meswaet Town;NMA-EIAR;12.69322;39.54191
5e91e1c214daf81260ebba59;Mehoni Town;NMA-EIAR;12.79;39.65
5e91e1c214daf81260ebba5a;Chercher Town;NMA-EIAR;12.5381;39.76861
5e91e1c214daf81260ebba5b;WAJA TEMUGA TOWN;NMA-EIAR;12.31566;39.60126
5e91e1c214daf81260ebba5c;Maychew Town;NMA-EIAR;12.78283;39.54349
5e91e1c214daf81260ebba5d;Korem Town;NMA-EIAR;12.50626;39.51452
5e91e1c214daf81260ebba5e;Alamata Town;NMA-EIAR;12.41868;39.5609
5e91e1c214daf81260ebba5f;Bemba;NMA-EIAR;13.42571;39.0616
5e91e1c214daf81260ebba60;May Kana;NMA-EIAR;13.40114;39.11529
5e91e1c214daf81260ebba61;Mariam Moko;NMA-EIAR;13.44009;39.1676
5e91e1c214daf81260ebba62;Adi Shisha;NMA-EIAR;13.43646;39.24766
5e91e1c214daf81260ebba63;Tashi;NMA-EIAR;13.36231;39.17218
5e91e1c214daf81260ebba64;Chliesret;NMA-EIAR;13.33403;39.08565
5e91e1c214daf81260ebba65;Hensta Waza;NMA-EIAR;13.29707;39.1768
5e91e1c214daf81260ebba66;Adi Kaila;NMA-EIAR;13.34296;39.26856
5e91e1c214daf81260ebba67;Addis Alem;NMA-EIAR;13.3038;39.23944
5e91e1c214daf81260ebba68;Amdi Woyane;NMA-EIAR;13.264;39.29202
5e91e1c214daf81260ebba69;May Tehili;NMA-EIAR;13.21658;39.26355
5e91e1c214daf81260ebba6a;Metkelili Meiat;NMA-EIAR;13.24433;39.15443
5e91e1c214daf81260ebba6b;Dekera;NMA-EIAR;13.19817;39.10277
5e91e1c214daf81260ebba6c;Nebar Hadinat;NMA-EIAR;13.07831;39.07962
5e91e1c214daf81260ebba6d;Hadash Lemlem;NMA-EIAR;13.10172;39.19713
5e91e1c214daf81260ebba6e;Lemlem Arena;NMA-EIAR;13.12086;39.28572
5e91e1c214daf81260ebba6f;Fere Woyane;NMA-EIAR;12.99091;39.26058
5e91e1c214daf81260ebba70;Mahibere Genet;NMA-EIAR;13.59071;39.42208
5e91e1c214daf81260ebba71;Maye Aleme;NMA-EIAR;13.54751;39.40379
5e91e1c214daf81260ebba72;Mareyame Dahane;NMA-EIAR;13.56228;39.4736
5e91e1c214daf81260ebba73;Falage Mayati;NMA-EIAR;13.60425;39.49926
5e91e1c214daf81260ebba74;Masobo;NMA-EIAR;13.56421;39.58184
5e91e1c214daf81260ebba75;Darega Ajeni;NMA-EIAR;13.52778;39.70048
5e91e1c214daf81260ebba76;Arato;NMA-EIAR;13.50998;39.61353
5e91e1c214daf81260ebba77;Hebite;NMA-EIAR;13.45406;39.51199
5e91e1c214daf81260ebba78;Debiri;NMA-EIAR;13.44662;39.42729
5e91e1c214daf81260ebba79;Mayei Anibrsa;NMA-EIAR;13.49759;39.37914
5e91e1c214daf81260ebba7a;Mayi Genete;NMA-EIAR;13.43097;39.34877
5e91e1c214daf81260ebba7b;Chelekoti;NMA-EIAR;13.36683;39.45194
5e91e1c214daf81260ebba7c;Didiba;NMA-EIAR;13.34878;39.5158
5e91e1c214daf81260ebba7d;Felege Salame;NMA-EIAR;13.39913;39.56294
5e91e1c214daf81260ebba7e;Maye Tsedo;NMA-EIAR;13.44272;39.59607
5e91e1c214daf81260ebba7f;Lemele;NMA-EIAR;13.39012;39.6808
5e91e1c214daf81260ebba80;Mesarete;NMA-EIAR;13.30613;39.63095
5e91e1c214daf81260ebba81;Metekel;NMA-EIAR;13.3776;39.32406
5e91e1c214daf81260ebba82;Dejen;NMA-EIAR;13.35172;39.38387
5e91e1c214daf81260ebba83;Amidi Weyane;NMA-EIAR;13.2974;39.33863
5e91e1c214daf81260ebba84;Hintalo;NMA-EIAR;13.27796;39.40568
5e91e1c214daf81260ebba85;Hagere Selam;NMA-EIAR;13.29266;39.46999
5e91e1c214daf81260ebba86;Hareko;NMA-EIAR;13.21588;39.3675
5e91e1c214daf81260ebba87;Fikire Alem;NMA-EIAR;13.19083;39.46487
5e91e1c214daf81260ebba88;Ara Alem;NMA-EIAR;13.21655;39.56256
5e91e1c214daf81260ebba89;Gonika;NMA-EIAR;13.12331;39.68543
5e91e1c214daf81260ebba8a;Sebebera;NMA-EIAR;13.14131;39.62178
5e91e1c214daf81260ebba8b;Mayi Nebiri;NMA-EIAR;13.1382;39.51294
5e91e1c214daf81260ebba8c;Muja;NMA-EIAR;13.12675;39.39428
5e91e1c214daf81260ebba8d;Hiwane;NMA-EIAR;13.08426;39.48254
5e91e1c214daf81260ebba8e;Waza Adi Awana;NMA-EIAR;13.0721;39.54725
5e91e1c214daf81260ebba8f;Bahari Tseba;NMA-EIAR;13.07115;39.61454
5e91e1c214daf81260ebba90;Seniale;NMA-EIAR;13.06409;39.71038
5e91e1c214daf81260ebba91;Adi Keyih;NMA-EIAR;13.00945;39.67857
5e91e1c214daf81260ebba92;Adi Mesino;NMA-EIAR;13.00354;39.60603
5e91e1c214daf81260ebba93;Tsehafiti;NMA-EIAR;12.9478;39.65617
5e91e1c214daf81260ebba94;NA;NMA-EIAR;13.22706;39.68105
5e91e1c214daf81260ebba95;NA;NMA-EIAR;13.16065;39.73833
5e91e1c214daf81260ebba96;Seniale;NMA-EIAR;13.05652;39.76571
5e91e1c214daf81260ebba97;Adi Keyih;NMA-EIAR;12.98455;39.7461
5e91e1c214daf81260ebba98;Tsehafiti;NMA-EIAR;12.92468;39.73631
5e91e1c214daf81260ebba99;Abinet;NMA-EIAR;13.0391;39.32705
5e91e1c214daf81260ebba9a;Seret;NMA-EIAR;13.06073;39.37604
5e91e1c214daf81260ebba9b;dejen;NMA-EIAR;13.01929;39.4204
5e91e1c214daf81260ebba9c;Tehiliweyane;NMA-EIAR;13.02906;39.45951
5e91e1c214daf81260ebba9d;betimera;NMA-EIAR;13.00488;39.5264
5e91e1c214daf81260ebba9e;keyihitehili;NMA-EIAR;12.96532;39.44657
5e91e1c214daf81260ebba9f;Fana;NMA-EIAR;13.00027;39.35547
5e91e1c214daf81260ebbaa0;Semiret;NMA-EIAR;12.96069;39.33304
5e91e1c214daf81260ebbaa1;Amedewuha;NMA-EIAR;12.9061;39.30665
5e91e1c214daf81260ebbaa2;Kilima;NMA-EIAR;12.84486;39.34645
5e91e1c214daf81260ebbaa3;Mayilihal;NMA-EIAR;12.91341;39.37885
5e91e1c214daf81260ebbaa4;Abeda;NMA-EIAR;12.89335;39.43224
5e91e1c214daf81260ebbaa5;Tehia;NMA-EIAR;12.90712;39.47577
5e91e1c214daf81260ebbaa6;Atesla;NMA-EIAR;12.94614;39.52903
5e91e1c214daf81260ebbaa7;Ayiba;NMA-EIAR;12.88284;39.54878
5e91e1c214daf81260ebbaa8;Sesat;NMA-EIAR;12.92155;39.59033
5e91e1c214daf81260ebbaa9;Kereya Kanfa;NMA-EIAR;12.83086;39.41955
5e91e1c214daf81260ebbaaa;embahasti;NMA-EIAR;12.83947;39.5514
5e91e1c214daf81260ebbaab;Hezeba T/ Haymanot;NMA-EIAR;12.77792;39.5695
5e91e1c214daf81260ebbaac;Shemtagesawsa;NMA-EIAR;12.79549;39.48123
5e91e1c214daf81260ebbaad;Senay;NMA-EIAR;12.7599;39.41955
5e91e1c214daf81260ebbaae;Duum;NMA-EIAR;12.79607;39.34953
5e91e1c214daf81260ebbaaf;Nikah;NMA-EIAR;12.76523;39.32506
5e91e1c214daf81260ebbab0;Arenna;NMA-EIAR;12.72053;39.35266
5e91e1c214daf81260ebbab1;Jema;NMA-EIAR;12.67985;39.44167
5e91e1c214daf81260ebbab2;Semret;NMA-EIAR;12.71989;39.49593
5e91e1c214daf81260ebbab3;Mehan;NMA-EIAR;12.75038;39.52327
5e91e1c214daf81260ebbab4;Tach Haya;NMA-EIAR;12.69436;39.55739
5e91e1c214daf81260ebbab5;Ebo;NMA-EIAR;12.87758;39.66514
5e91e1c214daf81260ebbab6;Hawulti;NMA-EIAR;12.84636;39.74368
5e91e1c214daf81260ebbab7;Mechara;NMA-EIAR;12.77149;39.79451
5e91e1c214daf81260ebbab8;Tsigawargiba;NMA-EIAR;12.79387;39.65732
5e91e1c214daf81260ebbab9;Genete;NMA-EIAR;12.75323;39.63013
5e91e1c214daf81260ebbaba;Kara Adishu;NMA-EIAR;12.69267;39.67951
5e91e1c214daf81260ebbabb;Wera Baye;NMA-EIAR;12.65552;39.62261
5e91e1c214daf81260ebbabc;Keku Fito;NMA-EIAR;12.59864;39.65143
5e91e1c214daf81260ebbabd;Heda Alga;NMA-EIAR;12.64402;39.78058
5e91e1c214daf81260ebbabe;Corme;NMA-EIAR;12.53554;39.75677
5e91e1c214daf81260ebbabf;Maru;NMA-EIAR;12.47842;39.69163
5e91e1c214daf81260ebbac0;Baleulaga;NMA-EIAR;12.42655;39.77157
5e91e1c214daf81260ebbac1;Hadiqingi;NMA-EIAR;12.37733;39.72178
5e91e1c214daf81260ebbac2;Hadiqingi;NMA-EIAR;12.42349;39.64849
5e91e1c214daf81260ebbac3;LAELAY DAYO;NMA-EIAR;12.52505;39.59729
5e91e1c214daf81260ebbac4;TAO;NMA-EIAR;12.51539;39.65403
5e91e1c214daf81260ebbac5;GEREJALE;NMA-EIAR;12.46214;39.61052
5e91e1c214daf81260ebbac6;HULEGIZE LEMELEM;NMA-EIAR;12.43359;39.58806
5e91e1c214daf81260ebbac7;SELAM BEQALESI;NMA-EIAR;12.39439;39.57455
5e91e1c214daf81260ebbac8;LEMEAT;NMA-EIAR;12.36168;39.58512
5e91e1c214daf81260ebbac9;SELEN WEHA;NMA-EIAR;12.33366;39.67003
5e91e1c214daf81260ebbaca;TEMUGA;NMA-EIAR;12.30082;39.57973
5e91e1c214daf81260ebbacb;TSETSERA;NMA-EIAR;12.37308;39.42416
5e91e1c214daf81260ebbacc;MEREWA;NMA-EIAR;12.35429;39.31248
5e91e1c214daf81260ebbacd;Denka Ashena;NMA-EIAR;12.62734;39.22826
5e91e1c214daf81260ebbace;Semeret;NMA-EIAR;12.67376;39.3158
5e91e1c214daf81260ebbacf;Selam Bekelisi;NMA-EIAR;12.63308;39.34675
5e91e1c214daf81260ebbad0;Stelgo;NMA-EIAR;12.6087;39.44295
5e91e1c214daf81260ebbad1;Hegumberda;NMA-EIAR;12.64577;39.53334
5e91e1c214daf81260ebbad2;Hashenge;NMA-EIAR;12.61498;39.50514
5e91e1c214daf81260ebbad3;Menkere;NMA-EIAR;12.56956;39.54079
5e91e1c214daf81260ebbad4;Adi Golo;NMA-EIAR;12.53749;39.50414
5e91e1c214daf81260ebbad5;Adisham Bereket;NMA-EIAR;12.56439;39.42042
5e91e1c214daf81260ebbad6;Sasela;NMA-EIAR;12.56775;39.33701
5e91e1c214daf81260ebbad7;Dara bekeda;NMA-EIAR;12.57136;39.25271
5e91e1c214daf81260ebbad8;Zata;NMA-EIAR;12.51244;39.27534
5e91e1c214daf81260ebbad9;Fala;NMA-EIAR;12.50461;39.37933
5e91e1c214daf81260ebbada;Fekere Wolda;NMA-EIAR;12.5061;39.44516
5e91e1c214daf81260ebbadb;Hayalo;NMA-EIAR;12.48327;39.53977
5e91e1c214daf81260ebbadc;Wenberet;NMA-EIAR;12.45954;39.50465
5e91e1c214daf81260ebbadd;kidana;NMA-EIAR;12.42249;39.4809
5e91e1c214daf81260ebbade;Lat;NMA-EIAR;12.4392;39.40815
5e91e1c214daf81260ebbadf;Guara;NMA-EIAR;12.44698;39.30617
5e91e1c214daf81260ebbae0;Tsebet;NMA-EIAR;12.84212;39.50062
63a374da05732d2a14260549;Alaje;NMA-EIAR;12.945033;39.42182
63a374da05732d2a1426054a;Alamata;NMA-EIAR;12.385983;39.51277
63a374da05732d2a1426054b;Endamehoni;NMA-EIAR;12.753128;39.45099
63a374da05732d2a1426054c;Enderta;NMA-EIAR;13.437366;39.55513
63a374da05732d2a1426054d;Hintalo Wejirat;NMA-EIAR;13.134439;39.57959
63a374da05732d2a1426054e;Ofla;NMA-EIAR;12.539614;39.38117
63a374da05732d2a1426054f;Raya Azebo;NMA-EIAR;12.663163;39.74354
63a374da05732d2a14260550;Saharti Samre;NMA-EIAR;13.203695;39.17377
63a374da05732d2a14260551;Adwa;NMA-EIAR;14.174856;38.92463
63a374da05732d2a14260552;Ahferom;NMA-EIAR;14.385617;39.12392
63a374da05732d2a14260553;Degua Temben;NMA-EIAR;13.621692;39.22526
63a374da05732d2a14260554;Kola Temben;NMA-EIAR;13.705003;38.91457
63a374da05732d2a14260555;Laelay Maychew;NMA-EIAR;14.09686;38.75484
63a374da05732d2a14260556;Mereb Leke;NMA-EIAR;14.36774;38.75539
63a374da05732d2a14260557;Naeder Adet;NMA-EIAR;13.841915;38.68539
63a374da05732d2a14260558;Tahtay Maychew;NMA-EIAR;14.083459;38.5851
63a374da05732d2a14260559;Tanqua Abergele;NMA-EIAR;13.402782;38.89282
63a374da05732d2a1426055a;Werei Leke;NMA-EIAR;13.984863;39.09122
63a374da05732d2a1426055b;Kafta Humera;NMA-EIAR;14.047627;36.94017
63a374da05732d2a1426055c;Tsegede;NMA-EIAR;13.490463;37.05643
63a374da05732d2a1426055d;Welkait;NMA-EIAR;13.756372;37.39545
63a374da05732d2a1426055e;Atsbi Wenberta;NMA-EIAR;13.810721;39.75904
63a374da05732d2a1426055f;Erob;NMA-EIAR;14.490214;39.6763
63a374da05732d2a14260560;Ganta Afeshum;NMA-EIAR;14.235746;39.38329
63a374da05732d2a14260561;Gulomekeda;NMA-EIAR;14.405498;39.4071
63a374da05732d2a14260562;Hawzen;NMA-EIAR;13.968787;39.3855
63a374da05732d2a14260563;Kelete Awelallo;NMA-EIAR;13.752858;39.5187
63a374da05732d2a14260564;Saesie Tsaedaemba;NMA-EIAR;14.166226;39.63229
63a374da05732d2a14260565;Asgede Tsimbila;NMA-EIAR;13.957487;37.9944
63a374da05732d2a14260566;Laelay Adiyabo;NMA-EIAR;14.366997;38.19828
63a374da05732d2a14260567;Medebay Zana;NMA-EIAR;14.008606;38.44539
63a374da05732d2a14260568;Tahtay Adiyabo;NMA-EIAR;14.426691;37.78967
63a374da05732d2a14260569;Tahtay Koraro;NMA-EIAR;14.096229;38.28583
63a374da05732d2a1426056a;Tselemti;NMA-EIAR;13.635414;38.14343
5eb346bcebd0050e38685f1a;Kobo Town;NMA-EIAR;12.15088;39.63358
5eb346bcebd0050e38685f1b;Robit Town;NMA-EIAR;12.0108;39.62647
5eb346bcebd0050e38685f1c;Gobeye Town;NMA-EIAR;11.95081;39.66436
5eb346bcebd0050e38685f1d;MUJA Town;NMA-EIAR;12.00793;39.28609
5eb346bcebd0050e38685f1e;KULMESK Town;NMA-EIAR;11.93559;39.20514
5eb346bcebd0050e38685f1f;Filahit Town;NMA-EIAR;11.76426;38.74311
5eb346bcebd0050e38685f20;Kon Town;NMA-EIAR;11.60873;38.93212
5eb346bcebd0050e38685f21;Wegel tena Town;NMA-EIAR;11.59321;39.21639
5eb346bcebd0050e38685f22;Hara Town;NMA-EIAR;11.84149;39.74333
5eb346bcebd0050e38685f23;Mersa Town;NMA-EIAR;11.66434;39.65865
5eb346bcebd0050e38685f24;Wergesa Town;NMA-EIAR;11.54357;39.62262
5eb346bcebd0050e38685f25;Woldiya Town;NMA-EIAR;11.82335;39.59416
5eb346bcebd0050e38685f26;Lalibela Town;NMA-EIAR;12.02886;39.04643
5eb346bcebd0050e38685f27;ZEBILO;NMA-EIAR;12.2013;38.52775
5eb346bcebd0050e38685f28;KOB;NMA-EIAR;12.23675;38.62049
5eb346bcebd0050e38685f29;Bir Kuakua;NMA-EIAR;12.1634;38.6564
5eb346bcebd0050e38685f2a;KWARO;NMA-EIAR;12.08379;38.68552
5eb346bcebd0050e38685f2b;Kidus Harbi;NMA-EIAR;12.07097;38.78546
5eb346bcebd0050e38685f2c;Ayina Mikael;NMA-EIAR;12.14094;38.86524
5eb346bcebd0050e38685f2d;Meskel Kirstos;NMA-EIAR;12.14022;38.79169
5eb346bcebd0050e38685f2e;AYINA EYESUS;NMA-EIAR;12.17168;38.82701
5eb346bcebd0050e38685f2f;Gul Wuha;NMA-EIAR;12.18389;38.7408
5eb346bcebd0050e38685f30;Burko;NMA-EIAR;12.24807;38.7573
5eb346bcebd0050e38685f31;LAY DIBA;NMA-EIAR;12.22653;38.83094
5eb346bcebd0050e38685f32;DARIYA;NMA-EIAR;12.23438;38.90946
5eb346bcebd0050e38685f33;Serzina;NMA-EIAR;12.10878;38.90581
5eb346bcebd0050e38685f34;Mehago;NMA-EIAR;12.31117;39.39846
5eb346bcebd0050e38685f35;Kobo Tetera;NMA-EIAR;12.29872;39.48796
5eb346bcebd0050e38685f36;Jemedo;NMA-EIAR;12.25981;39.43086
5eb346bcebd0050e38685f37;Bereha;NMA-EIAR;12.21189;39.45482
5eb346bcebd0050e38685f38;Ayub;NMA-EIAR;12.23219;39.59664
5eb346bcebd0050e38685f39;Jerota;NMA-EIAR;12.28049;39.64447
5eb346bcebd0050e38685f3a;Mesno;NMA-EIAR;12.28521;39.74007
5eb346bcebd0050e38685f3b;Rama;NMA-EIAR;12.23207;39.73061
5eb346bcebd0050e38685f3c;Zobel;NMA-EIAR;12.173;39.76863
5eb346bdebd0050e38685f3d;Mendefera;NMA-EIAR;12.21627;39.66691
5eb346bdebd0050e38685f3e;Kobo Zuriya;NMA-EIAR;12.13649;39.66048
5eb346bdebd0050e38685f3f;Bewa;NMA-EIAR;12.1624;39.60031
5eb346bdebd0050e38685f40;Gedeba;NMA-EIAR;12.15535;39.54829
5eb346bdebd0050e38685f41;Shewey Mariam;NMA-EIAR;12.19573;39.5093
5eb346bdebd0050e38685f42;Tekulashe;NMA-EIAR;12.14289;39.45435
5eb346bdebd0050e38685f43;Dino;NMA-EIAR;12.08848;39.4678
5eb346bdebd0050e38685f44;Arbet;NMA-EIAR;12.10286;39.53739
5eb346bdebd0050e38685f45;Aradom;NMA-EIAR;12.06865;39.62472
5eb346bdebd0050e38685f46;Abuare;NMA-EIAR;12.07168;39.68406
5eb346bdebd0050e38685f47;Weyiru Dikalo;NMA-EIAR;12.09214;39.77452
5eb346bdebd0050e38685f48;Werke;NMA-EIAR;12.01257;39.80811
5eb346bdebd0050e38685f49;Yaya;NMA-EIAR;11.93998;39.82883
5eb346bdebd0050e38685f4a;Afaf;NMA-EIAR;11.98709;39.71969
5eb346bdebd0050e38685f4b;Weremogna;NMA-EIAR;12.0079;39.64184
5eb346bdebd0050e38685f4c;Lache;NMA-EIAR;12.03111;39.58115
5eb346bdebd0050e38685f4d;Amoze;NMA-EIAR;12.03854;39.5419
5eb346bdebd0050e38685f4e;Awas;NMA-EIAR;11.98319;39.5545
5eb346bdebd0050e38685f4f;Ayida;NMA-EIAR;11.94613;39.52287
5eb346bdebd0050e38685f50;Asmella;NMA-EIAR;11.95241;39.55543
5eb346bdebd0050e38685f51;Dega Belago;NMA-EIAR;11.93768;39.59385
5eb346bdebd0050e38685f52;Behoro;NMA-EIAR;11.96108;39.64977
5eb346bdebd0050e38685f53;Durlebes;NMA-EIAR;11.91226;39.6548
5eb346bdebd0050e38685f54;Mito;NMA-EIAR;11.89668;39.57176
5eb346bdebd0050e38685f55;Kalim;NMA-EIAR;11.91144;39.52952
5eb346bdebd0050e38685f56;TATA;NMA-EIAR;12.23629;39.29818
5eb346bdebd0050e38685f57;WETWET;NMA-EIAR;12.27314;39.34069
5eb346bdebd0050e38685f58;ASHIKOWANA;NMA-EIAR;12.18711;39.38232
5eb346bdebd0050e38685f59;DILDIY;NMA-EIAR;12.1415;39.3532
5eb346bdebd0050e38685f5a;ASQIT;NMA-EIAR;12.18613;39.31789
5eb346bdebd0050e38685f5b;MEWAT;NMA-EIAR;12.13234;39.30092
5eb346bdebd0050e38685f5c;ATIMATA;NMA-EIAR;12.15853;39.26596
5eb346bdebd0050e38685f5d;AYIFE RUBA;NMA-EIAR;12.07056;39.22531
5eb346bdebd0050e38685f5e;AYITAHELA;NMA-EIAR;12.07715;39.26588
5eb346bdebd0050e38685f5f;WERQAWUTU;NMA-EIAR;12.05808;39.31109
5eb346bdebd0050e38685f60;DENBALSA;NMA-EIAR;12.03785;39.33255
5eb346bdebd0050e38685f61;TUBBA;NMA-EIAR;12.0881;39.41495
5eb346bdebd0050e38685f62;SELAMAT;NMA-EIAR;12.04396;39.47449
5eb346bdebd0050e38685f63;KOLAYIT;NMA-EIAR;11.99478;39.49714
5eb346bdebd0050e38685f64;WEQIT;NMA-EIAR;11.99611;39.46335
5eb346bdebd0050e38685f65;BEQULO MANEQIYA;NMA-EIAR;12.0202;39.41207
5eb346bdebd0050e38685f66;GESTA;NMA-EIAR;12.03375;39.36691
5eb346bdebd0050e38685f67;MERORA;NMA-EIAR;11.98765;39.34392
5eb346bdebd0050e38685f68;KOLA MUJA;NMA-EIAR;11.96165;39.2696
5eb346bdebd0050e38685f69;ZAGOL ZAF;NMA-EIAR;12.00532;39.25073
5eb346bdebd0050e38685f6a;AGEWUYE;NMA-EIAR;11.99923;39.19305
5eb346bdebd0050e38685f6b;TIRA SEFERE;NMA-EIAR;11.92648;39.18833
5eb346bdebd0050e38685f6c;NEFASIT;NMA-EIAR;11.91058;39.26492
5eb346bdebd0050e38685f6d;CHIBINA;NMA-EIAR;11.92323;39.33279
5eb346bdebd0050e38685f6e;IYELA;NMA-EIAR;11.95796;39.37981
5eb346bdebd0050e38685f6f;Serko;NMA-EIAR;11.934;38.69661
5eb346bdebd0050e38685f70;Lama deber;NMA-EIAR;11.98893;38.72212
5eb346bdebd0050e38685f71;Kila;NMA-EIAR;11.96416;38.8036
5eb346bdebd0050e38685f72;Areval;NMA-EIAR;11.87622;38.87982
5eb346bdebd0050e38685f73;Aydefer;NMA-EIAR;11.87509;38.98831
5eb346bdebd0050e38685f74;Key afer;NMA-EIAR;11.88786;39.10669
5eb346bdebd0050e38685f75;Denkena;NMA-EIAR;11.87842;39.23918
5eb346bdebd0050e38685f76;Robit;NMA-EIAR;11.84724;39.18801
5eb346bdebd0050e38685f77;Estayish;NMA-EIAR;11.83265;39.14427
5eb346bdebd0050e38685f78;Waro;NMA-EIAR;11.83606;39.09012
5eb346bdebd0050e38685f79;Boya;NMA-EIAR;11.81425;39.02712
5eb346bdebd0050e38685f7a;Dbko;NMA-EIAR;11.81116;38.93646
5eb346bdebd0050e38685f7b;Defergie;NMA-EIAR;11.80049;38.86017
5eb346bdebd0050e38685f7c;Kurssa;NMA-EIAR;11.79876;38.79599
5eb346bdebd0050e38685f7d;Mebel;NMA-EIAR;11.86239;38.80425
5eb346bdebd0050e38685f7e;Wefchinna;NMA-EIAR;11.81174;38.75467
5eb346bdebd0050e38685f7f;Tiweha;NMA-EIAR;11.85369;38.74803
5eb346bdebd0050e38685f80;Agiret;NMA-EIAR;11.84902;38.69975
5eb346bdebd0050e38685f81;Debre kebire;NMA-EIAR;11.90611;38.62966
5eb346bdebd0050e38685f82;Aymet;NMA-EIAR;11.85523;38.5882
5eb346bdebd0050e38685f83;Debrezebit;NMA-EIAR;11.78782;38.60149
5eb346bdebd0050e38685f84;Berekeze;NMA-EIAR;11.83073;38.64285
5eb346bdebd0050e38685f85;Hansewuhana Tsebelet;NMA-EIAR;11.76338;38.65334
5eb346bdebd0050e38685f86;Maserut;NMA-EIAR;11.77355;38.70474
5eb346bdebd0050e38685f87;Zibe;NMA-EIAR;11.72505;38.67937
5eb346bdebd0050e38685f88;Hana Mekuwat;NMA-EIAR;11.70236;38.68387
5eb346bdebd0050e38685f89;Asasa;NMA-EIAR;11.65036;38.67431
5eb346bdebd0050e38685f8a;Tegubenna Meskel;NMA-EIAR;11.65181;38.73482
5eb346bdebd0050e38685f8b;Werkaye;NMA-EIAR;11.74431;38.75483
5eb346bdebd0050e38685f8c;Fentrie;NMA-EIAR;11.75145;38.80658
5eb346bdebd0050e38685f8d;Weketa;NMA-EIAR;11.72147;38.80398
5eb346bdebd0050e38685f8e;Jirle;NMA-EIAR;11.69068;38.84096
5eb346bdebd0050e38685f8f;Akat;NMA-EIAR;11.69372;38.87633
5eb346bdebd0050e38685f90;Mesfina;NMA-EIAR;11.75637;38.89695
5eb346bdebd0050e38685f91;Taja;NMA-EIAR;11.73511;38.93273
5eb346bdebd0050e38685f92;Timtimat;NMA-EIAR;11.71188;38.96794
5eb346bdebd0050e38685f93;Hamusit;NMA-EIAR;11.76506;38.99983
5eb346bdebd0050e38685f94;Nubetalalach (019);NMA-EIAR;11.78173;39.18543
5eb346bdebd0050e38685f95;Washa Mikael;NMA-EIAR;11.74627;39.22492
5eb346bdebd0050e38685f96;Jeberana Goza(21);NMA-EIAR;11.71206;39.19015
5eb346bdebd0050e38685f97;Yeweynnayenket(22);NMA-EIAR;11.71137;39.15046
5eb346bdebd0050e38685f98;Talet (018);NMA-EIAR;11.75621;39.10553
5eb346bdebd0050e38685f99;Yegnd (23);NMA-EIAR;11.67698;39.14542
5eb346bdebd0050e38685f9a;Feresmegriya[24];NMA-EIAR;11.65479;39.11463
5eb346bdebd0050e38685f9b;Wegedet (09);NMA-EIAR;11.66738;39.07586
5eb346bdebd0050e38685f9c;Abdikom (010);NMA-EIAR;11.70646;39.05892
5eb346bdebd0050e38685f9d;Kurkursulula(011);NMA-EIAR;11.7077;39.01999
5eb346bdebd0050e38685f9e;Ganchere (08);NMA-EIAR;11.63446;39.04383
5eb346bdebd0050e38685f9f;Semerna (07);NMA-EIAR;11.59123;39.05246
5eb346bdebd0050e38685fa0;Chana (06);NMA-EIAR;11.61414;39.01453
5eb346bdebd0050e38685fa1;Beteyuhans (012);NMA-EIAR;11.6551;38.96932
5eb346bdebd0050e38685fa2;Delenga{05};NMA-EIAR;11.57675;38.99472
5eb346bdebd0050e38685fa3;Yewetet;NMA-EIAR;11.54949;38.96508
5eb346bdebd0050e38685fa4;Betehor (03);NMA-EIAR;11.57434;38.94672
5eb346bdebd0050e38685fa5;Dorera (02);NMA-EIAR;11.56315;38.90982
5eb346bdebd0050e38685fa6;Kongeter( 01);NMA-EIAR;11.61556;38.92899
5eb346bdebd0050e38685fa7;Gashena (13);NMA-EIAR;11.66885;38.91295
5eb346bdebd0050e38685fa8;Yenejaknkna (014);NMA-EIAR;11.61875;38.88635
5eb346bdebd0050e38685fa9;Yenejamswgo (027);NMA-EIAR;11.58912;38.86152
5eb346bdebd0050e38685faa;Meley (017);NMA-EIAR;11.66764;38.80189
5eb346bdebd0050e38685fab;Kona (016);NMA-EIAR;11.6246;38.79044
5eb346bdebd0050e38685fac;Zugora (015);NMA-EIAR;11.59521;38.82603
5eb346bdebd0050e38685fad;Selam amba;NMA-EIAR;11.775;39.28051
5eb346bdebd0050e38685fae;Lam dinigay;NMA-EIAR;11.81614;39.3422
5eb346bdebd0050e38685faf;Sekolho;NMA-EIAR;11.80089;39.37932
5eb346bdebd0050e38685fb0;Kembeh;NMA-EIAR;11.77574;39.40357
5eb346bdebd0050e38685fb1;Entuguna;NMA-EIAR;11.74515;39.30336
5eb346bdebd0050e38685fb2;Mekelet;NMA-EIAR;11.73758;39.34824
5eb346bdebd0050e38685fb3;Tikishinyi Sinat;NMA-EIAR;11.7136;39.3963
5eb346bdebd0050e38685fb4;Timat Kishign;NMA-EIAR;11.71939;39.42774
5eb346bdebd0050e38685fb5;Selit dima;NMA-EIAR;11.70966;39.35772
5eb346bdebd0050e38685fb6;Kisat kola;NMA-EIAR;11.66431;39.3372
5eb346bdebd0050e38685fb7;Weyiso kisat;NMA-EIAR;11.69086;39.30165
5eb346bdebd0050e38685fb8;Beseka;NMA-EIAR;11.66101;39.2857
5eb346bdebd0050e38685fb9;Wilika zelihon;NMA-EIAR;11.68716;39.23965
5eb346bdebd0050e38685fba;Tana;NMA-EIAR;11.6576;39.18491
5eb346bdebd0050e38685fbb;Ambaye Zerinia;NMA-EIAR;11.64244;39.22122
5eb346bdebd0050e38685fbc;Biwot sileho;NMA-EIAR;11.62472;39.25054
5eb346bdebd0050e38685fbd;Tembeko;NMA-EIAR;11.6134;39.3061
5eb346bdebd0050e38685fbe;Ferkake;NMA-EIAR;11.57026;39.26383
5eb346bdebd0050e38685fbf;Gosh meda;NMA-EIAR;11.51682;39.24093
5eb346bdebd0050e38685fc0;Keda misitinkir;NMA-EIAR;11.49736;39.17284
5eb346bdebd0050e38685fc1;Dihana;NMA-EIAR;11.57459;39.18464
5eb346bdebd0050e38685fc2;Wesino amba;NMA-EIAR;11.60237;39.18814
5eb346bdebd0050e38685fc3;Tardiyat;NMA-EIAR;11.62037;39.15407
5eb346bdebd0050e38685fc4;Tardiyat fenzayit;NMA-EIAR;11.60858;39.12461
5eb346bdebd0050e38685fc5;Ziban arehula;NMA-EIAR;11.57258;39.08656
5eb346bdebd0050e38685fc6;Asim Elana;NMA-EIAR;11.55622;39.13957
5eb346bdebd0050e38685fc7;Asim yimara;NMA-EIAR;11.51352;39.12786
5eb346bdebd0050e38685fc8;Arka Chinka;NMA-EIAR;11.51506;39.09353
5eb346bdebd0050e38685fc9;Kechin arah chew kutir;NMA-EIAR;11.53111;39.06068
5eb346bdebd0050e38685fca;Wteyo aberkut;NMA-EIAR;11.52374;39.00888
5eb346bdebd0050e38685fcb;Silana Tikurena;NMA-EIAR;11.49457;39.02516
5eb346bdebd0050e38685fcc;Baba;NMA-EIAR;11.48488;39.05661
5eb346bdebd0050e38685fcd;Shekol sembelet;NMA-EIAR;11.46145;39.09299
5eb346bdebd0050e38685fce;Zhita;NMA-EIAR;11.4337;39.03103
5eb346bdebd0050e38685fcf;Tesfa Giyorgis;NMA-EIAR;11.82311;39.23867
5eb346bdebd0050e38685fd0;Koso Amba;NMA-EIAR;11.83453;39.29337
5eb346bdebd0050e38685fd1;Ahun Tegegn;NMA-EIAR;11.86787;39.30239
5eb346bdebd0050e38685fd2;Kulf Amba;NMA-EIAR;11.85762;39.38057
5eb346bdebd0050e38685fd3;Baba Seat;NMA-EIAR;11.91183;39.39118
5eb346bdebd0050e38685fd4;Debot;NMA-EIAR;11.9424;39.42595
5eb346bdebd0050e38685fd5;Wuraf;NMA-EIAR;11.93708;39.45126
5eb346bdebd0050e38685fd6;Weynye;NMA-EIAR;11.91195;39.48679
5eb346bdebd0050e38685fd7;Gesho Ber;NMA-EIAR;11.89062;39.42645
5eb346bdebd0050e38685fd8;Zewer Gotera;NMA-EIAR;11.85517;39.43393
5eb346bdebd0050e38685fd9;Key Amba;NMA-EIAR;11.83391;39.48194
5eb346bdebd0050e38685fda;Anova;NMA-EIAR;11.86769;39.47884
5eb346bdebd0050e38685fdb;Gedo Ber;NMA-EIAR;11.86063;39.54011
5eb346bdebd0050e38685fdc;Gubarja;NMA-EIAR;11.81609;39.6482
5eb346bdebd0050e38685fdd;Lay Alawuha;NMA-EIAR;11.86665;39.67099
5eb346bdebd0050e38685fde;Laste Gerado;NMA-EIAR;11.8605;39.714
5eb346bdebd0050e38685fdf;Guagusa Bilkay;NMA-EIAR;11.79884;39.74682
5eb346bdebd0050e38685fe0;Kile Udame;NMA-EIAR;11.80706;39.7009
5eb346bdebd0050e38685fe1;Golaferes Megiriya;NMA-EIAR;11.78255;39.6532
5eb346bdebd0050e38685fe2;Ameya Mecha;NMA-EIAR;11.77655;39.54128
5eb346bdebd0050e38685fe3;Aykel Webi;NMA-EIAR;11.82347;39.53405
5eb346bdebd0050e38685fe4;Gebre Amba;NMA-EIAR;11.78788;39.5074
5eb346bdebd0050e38685fe5;Lideta Keriyu;NMA-EIAR;11.80015;39.46733
5eb346bdebd0050e38685fe6;Koker Amba;NMA-EIAR;11.75334;39.47477
5eb346bdebd0050e38685fe7;Wudimen;NMA-EIAR;11.74433;39.52675
5eb346bdebd0050e38685fe8;Ezet;NMA-EIAR;11.7016;39.52346
5eb346bdebd0050e38685fe9;Dengola;NMA-EIAR;11.65212;39.47971
5eb346bdebd0050e38685fea;Sekela;NMA-EIAR;11.69021;39.44149
5eb346bdebd0050e38685feb;Shewit;NMA-EIAR;11.62775;39.43398
5eb346bdebd0050e38685fec;Sagat;NMA-EIAR;11.62538;39.37861
5eb346bdebd0050e38685fed;Kes Kebele;NMA-EIAR;11.88344;39.77999
5eb346bdebd0050e38685fee;Telfea;NMA-EIAR;11.84235;39.82495
5eb346bdebd0050e38685fef;Dana;NMA-EIAR;11.81866;39.77418
5eb346bdebd0050e38685ff0;Haro;NMA-EIAR;11.78563;39.81652
5eb346bdebd0050e38685ff1;Kilewa;NMA-EIAR;11.72302;39.86581
5eb346bdebd0050e38685ff2;Kejema;NMA-EIAR;11.72343;39.81418
5eb346bdebd0050e38685ff3;Bofa;NMA-EIAR;11.7015;39.77574
5eb346bdebd0050e38685ff4;Gola Halo;NMA-EIAR;11.73013;39.74735
5eb346bdebd0050e38685ff5;Kule;NMA-EIAR;11.71263;39.70825
5eb346bdebd0050e38685ff6;Menen Tela;NMA-EIAR;11.74994;39.6736
5eb346bdebd0050e38685ff7;Deko;NMA-EIAR;11.72133;39.6524
5eb346bdebd0050e38685ff8;Gerado;NMA-EIAR;11.75463;39.6371
5eb346bdebd0050e38685ff9;Sirinka;NMA-EIAR;11.73558;39.60066
5eb346bdebd0050e38685ffa;Gosh Weha;NMA-EIAR;11.75999;39.57625
5eb346bdebd0050e38685ffb;Merto;NMA-EIAR;11.7284;39.56096
5eb346bdebd0050e38685ffc;Abuarie;NMA-EIAR;11.68771;39.62942
5eb346bdebd0050e38685ffd;Wutie;NMA-EIAR;11.63574;39.62851
5eb346bdebd0050e38685ffe;Were Lalo;NMA-EIAR;11.63711;39.71022
5eb346bdebd0050e38685fff;Wila Guba;NMA-EIAR;11.63781;39.79904
5eb346bdebd0050e38686000;Arerit;NMA-EIAR;11.65205;39.86827
5eb346bdebd0050e38686001;Kul Baynie;NMA-EIAR;11.5908;39.85303
5eb346bdebd0050e38686002;Habru Ligo;NMA-EIAR;11.59932;39.76016
5eb346bdebd0050e38686003;Mehal Amba;NMA-EIAR;11.59384;39.65372
5eb346bdebd0050e38686004;Aela;NMA-EIAR;11.56568;39.63689
5eb346bdebd0050e38686005;Gorariba;NMA-EIAR;11.55442;39.69375
5eb346bdebd0050e38686006;Girana;NMA-EIAR;11.56314;39.7366
5eb346bdebd0050e38686007;Kolabo;NMA-EIAR;11.52083;39.79538
5eb346bdebd0050e38686008;Wadoteklo;NMA-EIAR;11.53146;39.72668
5eb346bdebd0050e38686009;Duda Arba;NMA-EIAR;11.49543;39.70391
5eb346bdebd0050e3868600a;Goda;NMA-EIAR;11.5333;39.64411
5eb346bdebd0050e3868600b;BILIBALA;NMA-EIAR;12.17636;38.99156
5eb346bdebd0050e3868600c;YIMRIHA;NMA-EIAR;12.13904;39.07818
5eb346bdebd0050e3868600d;WEDABIYE;NMA-EIAR;12.10524;39.13784
5eb346bdebd0050e3868600e;ABUNE YOSEF;NMA-EIAR;12.16986;39.19565
5eb346bdebd0050e3868600f;GIRARAY;NMA-EIAR;12.26308;39.25012
5eb346bdebd0050e38686010;INJAFAT;NMA-EIAR;12.17302;39.23963
5eb346bdebd0050e38686011;TELIFETIT;NMA-EIAR;12.09465;39.17248
5eb346bdebd0050e38686012;TADEWOS AMIBA;NMA-EIAR;12.03773;39.16179
5eb346bdebd0050e38686013;GETER MEDA;NMA-EIAR;12.01883;39.12068
5eb346bdebd0050e38686014;MEDAGE;NMA-EIAR;12.05659;39.05811
5eb346bdebd0050e38686015;DEGOSACH;NMA-EIAR;12.09544;39.07121
5eb346bdebd0050e38686016;Debre Loza;NMA-EIAR;12.08343;39.0023
5eb346bdebd0050e38686017;Sorba;NMA-EIAR;12.02645;38.90446
5eb346bdebd0050e38686018;Gelesat;NMA-EIAR;11.94658;38.9087
5eb346bdebd0050e38686019;SHUMISHEHA;NMA-EIAR;11.99707;38.99395
5eb346bdebd0050e3868601a;Nakuto Le Ab;NMA-EIAR;11.99372;39.05824
5eb346bdebd0050e3868601b;GENET MARIYAM;NMA-EIAR;11.95204;39.11515
5eb346bdebd0050e3868601c;SHALO;NMA-EIAR;11.92793;39.0355
5eb346bdebd0050e3868601d;Gagibiyana shemawala/25/;NMA-EIAR;11.57173;38.74277
5eb346bdebd0050e3868601e;Dote glatana Mana tunaja/26/;NMA-EIAR;11.53199;38.82386
5eb346bdebd0050e3868601f;Atsefit yekendat;NMA-EIAR;11.50616;38.89598
5eb346bdebd0050e38686020;Debir agonat;NMA-EIAR;11.49076;38.85723
5eb346bdebd0050e38686021;Yesay Yediba;NMA-EIAR;11.47215;38.83139
5eb346bdebd0050e38686022;Ambat magot;NMA-EIAR;11.49013;38.75008
5eb346bdebd0050e38686023;Asigaj siso meda;NMA-EIAR;11.43506;38.76169
5eb346bdebd0050e38686024;Degela;NMA-EIAR;11.41016;38.80692
5eb346bdebd0050e38686025;Shola yechereka;NMA-EIAR;11.4292;38.8613
5eb346bdebd0050e38686026;Gulia beseka;NMA-EIAR;11.39892;38.91124
5eb346bdebd0050e38686027;Chet yabte;NMA-EIAR;11.43671;38.95515
5eb346bdebd0050e38686028;Key Warka fenseha;NMA-EIAR;11.49835;38.93509
5eb346bdebd0050e38686029;Ayda Sagora;NMA-EIAR;11.47709;38.97734
5ebad1b04c06b707e80d6196;UnCovered;NMA-EIAR;12.91248;36.0256
5ebad1b04c06b707e80d6197;Unkown;NMA-EIAR;12.09963;35.54615
5ebad1b04c06b707e80d6198;Adi Aregay;NMA-EIAR;13.45034;38.06439
5ebad1b04c06b707e80d6199;Zarima Town;NMA-EIAR;13.34497;37.88485
5ebad1b04c06b707e80d619a;Dil Yibza Town;NMA-EIAR;13.11929;38.44314
5ebad1b04c06b707e80d619b;Mekane Berhan Town;NMA-EIAR;13.00676;38.10418
5ebad1b04c06b707e80d619c;Debarq Town;NMA-EIAR;13.15032;37.89756
5ebad1b04c06b707e80d619d;Dabat;NMA-EIAR;12.98155;37.76345
5ebad1b04c06b707e80d619e;Weken Town;NMA-EIAR;13.06006;37.82695
5ebad1b04c06b707e80d619f;Abrhajara Town;NMA-EIAR;13.46623;36.47686
5ebad1b04c06b707e80d61a0;Abdarafa Town;NMA-EIAR;13.69572;36.4644
5ebad1b04c06b707e80d61a1;Kerakr Town;NMA-EIAR;13.34953;37.3882
5ebad1b04c06b707e80d61a2;Saroka Town;NMA-EIAR;13.36237;37.01883
5ebad1b04c06b707e80d61a3;Tikil Dingay Town;NMA-EIAR;12.74428;37.4149
5ebad1b04c06b707e80d61a4;Gedebge Twon;NMA-EIAR;12.87311;37.73904
5ebad1b04c06b707e80d61a5;Amba Giorges Town;NMA-EIAR;12.76667;37.62239
5ebad1b04c06b707e80d61a6;Maksenyit Town;NMA-EIAR;12.38338;37.55526
5ebad1b04c06b707e80d61a7;Dagoma Town;NMA-EIAR;12.40317;37.69267
5ebad1b04c06b707e80d61a8;InfranzTown;NMA-EIAR;12.25652;37.62799
5ebad1b04c06b707e80d61a9;Chuahit;NMA-EIAR;12.33523;37.22526
5ebad1b04c06b707e80d61aa;Koladiba;NMA-EIAR;12.42628;37.33018
5ebad1b04c06b707e80d61ab;Gorgora;NMA-EIAR;12.23553;37.29309
5ebad1b04c06b707e80d61ac;Ayimba;NMA-EIAR;12.53297;37.30318
5ebad1b04c06b707e80d61ad;Seraba;NMA-EIAR;12.51854;37.02635
5ebad1b04c06b707e80d61ae;Aukel Ketema;NMA-EIAR;12.55038;37.06514
5ebad1b04c06b707e80d61af;Negade Bahr;NMA-EIAR;12.5847;36.77387
5ebad1b04c06b707e80d61b0;Metema Town;NMA-EIAR;12.94879;36.15485
5ebad1b04c06b707e80d61b1;Shinfa Town;NMA-EIAR;12.57352;36.13338
5ebad1b04c06b707e80d61b2;Kokit Town;NMA-EIAR;12.87011;36.26521
5ebad1b04c06b707e80d61b3;Genda Wuha Town;NMA-EIAR;12.77681;36.40771
5ebad1b04c06b707e80d61b4;Gelegu Town;NMA-EIAR;12.2036;35.89592
5ebad1b04c06b707e80d61b5;Salya Town;NMA-EIAR;12.27381;36.22516
5ebad1b04c06b707e80d61b6;Gomenge Town;NMA-EIAR;12.00853;36.83901
5ebad1b04c06b707e80d61b7;Esey Debr Town;NMA-EIAR;12.0172;37.0149
5ebad1b04c06b707e80d61b8;Dengel Ber Town;NMA-EIAR;11.94507;36.99907
5ebad1b04c06b707e80d61b9;Shahura Town;NMA-EIAR;11.93302;36.87369
5ebad1b04c06b707e80d61ba;ARIBAYA;NMA-EIAR;12.47615;37.82665
5ebad1b04c06b707e80d61bb;Hamusit Town;NMA-EIAR;12.51461;38.14063
5ebad1b04c06b707e80d61bc;Gwehala Town;NMA-EIAR;12.39517;38.08111
5ebad1b04c06b707e80d61bd;Gondar Town;NMA-EIAR;12.57553;37.45034
5ebad1b04c06b707e80d61be;Sanja Town;NMA-EIAR;13.00257;37.29814
5ebad1b04c06b707e80d61bf;Masero Denb Town;NMA-EIAR;12.92351;37.04848
5ebad1b04c06b707e80d61c0;Dalga Town;NMA-EIAR;12.20258;37.05541
5ebad1b04c06b707e80d61c1;Ali;NMA-EIAR;13.50861;37.76648
5ebad1b04c06b707e80d61c2;Sanik;NMA-EIAR;13.38457;37.76995
5ebad1b04c06b707e80d61c3;Nebira Fikika;NMA-EIAR;13.38405;37.87735
5ebad1b04c06b707e80d61c4;Chewu Ber;NMA-EIAR;13.33977;37.95864
5ebad1b04c06b707e80d61c5;Ber Mariyam;NMA-EIAR;13.40425;38.00908
5ebad1b04c06b707e80d61c6;Adi Aregay;NMA-EIAR;13.43735;38.0531
5ebad1b04c06b707e80d61c7;Aba Mar;NMA-EIAR;13.46707;38.11081
5ebad1b04c06b707e80d61c8;Hawaza;NMA-EIAR;13.41309;38.13856
5ebad1b04c06b707e80d61c9;Ziwa;NMA-EIAR;13.46571;38.19626
5ebad1b04c06b707e80d61ca;Meni Weniberoge;NMA-EIAR;13.39186;38.21725
5ebad1b04c06b707e80d61cb;Teta Ferekwari;NMA-EIAR;13.35474;38.14531
5ebad1b04c06b707e80d61cc;Agidamiya;NMA-EIAR;13.30999;38.12712
5ebad1b04c06b707e80d61cd;Seragudela;NMA-EIAR;13.32816;38.05408
5ebad1b04c06b707e80d61ce;Anigwana Kerinaja;NMA-EIAR;13.27241;37.99016
5ebad1b04c06b707e80d61cf;Meka Zeteng Chika;NMA-EIAR;13.30775;37.8582
5ebad1b04c06b707e80d61d0;Arima Dega Bereha;NMA-EIAR;13.49519;37.87836
5ebad1b04c06b707e80d61d1;Semen Teraroch Park;NMA-EIAR;13.24773;38.10846
5ebad1b04c06b707e80d61d2;Adi Aregay;NMA-EIAR;13.48868;37.98978
5ebad1b04c06b707e80d61d3;Sabra;NMA-EIAR;13.30877;38.36617
5ebad1b04c06b707e80d61d4;Meleb;NMA-EIAR;13.3182;38.40134
5ebad1b04c06b707e80d61d5;Tiber;NMA-EIAR;13.33995;38.44659
5ebad1b04c06b707e80d61d6;Tebela;NMA-EIAR;13.3854;38.48296
5ebad1b04c06b707e80d61d7;Merew;NMA-EIAR;13.38452;38.58523
5ebad1b04c06b707e80d61d8;Betel;NMA-EIAR;13.32872;38.59191
5ebad1b04c06b707e80d61d9;Beskiya;NMA-EIAR;13.28819;38.53773
5ebad1b04c06b707e80d61da;Segenet;NMA-EIAR;13.30051;38.47206
5ebad1b04c06b707e80d61db;Liwaer;NMA-EIAR;13.24215;38.51978
5ebad1b04c06b707e80d61dc;Medebay;NMA-EIAR;13.23417;38.47843
5ebad1b04c06b707e80d61dd;Selewa;NMA-EIAR;13.21878;38.46818
5ebad1b04c06b707e80d61de;Beyeda Matiba;NMA-EIAR;13.19354;38.44748
5ebad1b04c06b707e80d61df;Melba Kara;NMA-EIAR;13.15906;38.44094
5ebad1b04c06b707e80d61e0;Wati;NMA-EIAR;13.10269;38.44746
5ebad1b04c06b707e80d61e1;Abare;NMA-EIAR;13.18926;38.39308
5ebad1b04c06b707e80d61e2;Adi Lemlem;NMA-EIAR;13.17833;38.37384
5ebad1b04c06b707e80d61e3;Ayiga Atere;NMA-EIAR;13.13202;38.37964
5ebad1b04c06b707e80d61e4;Jan Belew;NMA-EIAR;13.07954;38.37102
5ebad1b04c06b707e80d61e5;Beya;NMA-EIAR;13.08168;38.34304
5ebad1b04c06b707e80d61e6;Wana mariyam;NMA-EIAR;13.0069;38.34388
5ebad1b04c06b707e80d61e7;Bashaye;NMA-EIAR;13.10493;38.32362
5ebad1b04c06b707e80d61e8;Tach Ambe;NMA-EIAR;13.10134;38.30225
5ebad1b04c06b707e80d61e9;Lori;NMA-EIAR;13.3085;38.21605
5ebad1b04c06b707e80d61ea;Dibil;NMA-EIAR;13.31207;38.26916
5ebad1b04c06b707e80d61eb;Majo Ayiteter;NMA-EIAR;13.25042;38.32714
5ebad1b04c06b707e80d61ec;Atigeba;NMA-EIAR;13.26131;38.26889
5ebad1b04c06b707e80d61ed;Bahir Amba;NMA-EIAR;13.20414;38.25412
5ebad1b04c06b707e80d61ee;Kilil;NMA-EIAR;13.17744;38.30368
5ebad1b04c06b707e80d61ef;Zakilita;NMA-EIAR;13.13765;38.26125
5ebad1b04c06b707e80d61f0;Sakiba;NMA-EIAR;13.14212;38.21401
5ebad1b04c06b707e80d61f1;Denikolako;NMA-EIAR;13.11672;38.14548
5ebad1b04c06b707e80d61f2;Barina;NMA-EIAR;13.18911;38.16778
5ebad1b04c06b707e80d61f3;Mare Weniz;NMA-EIAR;13.16672;38.09752
5ebad1b04c06b707e80d61f4;Enchat Kab;NMA-EIAR;13.11162;38.09886
5ebad1b04c06b707e80d61f5;Woyena;NMA-EIAR;13.03698;38.04272
5ebad1b04c06b707e80d61f6;Liga;NMA-EIAR;12.98041;38.04817
5ebad1b04c06b707e80d61f7;Dersge;NMA-EIAR;13.02089;38.10261
5ebad1b04c06b707e80d61f8;Robu Gebeya;NMA-EIAR;13.061;38.14878
5ebad1b04c06b707e80d61f9;Gasha Jagera;NMA-EIAR;13.01814;38.1779
5ebad1b04c06b707e80d61fa;Darona;NMA-EIAR;13.08643;38.20006
5ebad1b04c06b707e80d61fb;Geniz;NMA-EIAR;13.05375;38.22757
5ebad1b04c06b707e80d61fc;Aregay Mariyam Tene;NMA-EIAR;13.03894;38.25044
5ebad1b04c06b707e80d61fd;Zawula Kurana;NMA-EIAR;13.02899;38.29758
5ebad1b04c06b707e80d61fe;Btezaze;NMA-EIAR;12.9304;38.31326
5ebad1b04c06b707e80d61ff;Awuchara;NMA-EIAR;12.89895;38.34663
5ebad1b04c06b707e80d6200;Chocha;NMA-EIAR;12.83919;38.30241
5ebad1b04c06b707e80d6201;Wasil;NMA-EIAR;12.96276;38.2701
5ebad1b04c06b707e80d6202;Koga;NMA-EIAR;12.92118;38.24529
5ebad1b04c06b707e80d6203;Iliwa;NMA-EIAR;12.94949;38.2129
5ebad1b04c06b707e80d6204;Serebar;NMA-EIAR;12.94431;38.15264
5ebad1b04c06b707e80d6205;sebera denat;NMA-EIAR;12.92098;38.09727
5ebad1b04c06b707e80d6206;Werke;NMA-EIAR;12.85493;38.06825
5ebad1b04c06b707e80d6207;Atela;NMA-EIAR;12.80348;38.15253
5ebad1b04c06b707e80d6208;Asega;NMA-EIAR;12.87999;38.1779
5ebad1b04c06b707e80d6209;Gurigur Minata;NMA-EIAR;12.80653;38.25387
5ebad1b04c06b707e80d620a;Daldima;NMA-EIAR;13.35494;37.57545
5ebad1b04c06b707e80d620b;Dawe;NMA-EIAR;13.38697;37.6701
5ebad1b04c06b707e80d620c;Asabo;NMA-EIAR;13.29545;37.70104
5ebad1b04c06b707e80d620d;Chardikua;NMA-EIAR;13.27649;37.61852
5ebad1b04c06b707e80d620e;Abeysekor Amba;NMA-EIAR;13.23537;37.65632
5ebad1b04c06b707e80d620f;Mahel Kebesha;NMA-EIAR;13.19368;37.66263
5ebad1b04c06b707e80d6210;Tirahina;NMA-EIAR;13.21827;37.73638
5ebad1b04c06b707e80d6211;Jirosen;NMA-EIAR;13.29024;37.77926
5ebad1b04c06b707e80d6212;Wuraba Dimto;NMA-EIAR;13.23191;37.82886
5ebad1b04c06b707e80d6213;Adagat;NMA-EIAR;13.17768;37.78768
5ebad1b04c06b707e80d6214;Adi Gagira;NMA-EIAR;13.14786;37.73896
5ebad1b04c06b707e80d6215;Abriham;NMA-EIAR;13.12318;37.78353
5ebad1b04c06b707e80d6216;Mikara;NMA-EIAR;13.13081;37.8544
5ebad1b04c06b707e80d6217;Kino;NMA-EIAR;13.08113;37.88734
5ebad1b04c06b707e80d6218;Kirar Zebzeba;NMA-EIAR;13.09457;37.92162
5ebad1b04c06b707e80d6219;Zebena;NMA-EIAR;13.16691;37.87024
5ebad1b04c06b707e80d621a;Debir;NMA-EIAR;13.16985;37.91704
5ebad1b04c06b707e80d621b;Dib Bahir;NMA-EIAR;13.2391;37.9006
5ebad1b04c06b707e80d621c;Adesge Mali Gebsa;NMA-EIAR;13.1775;37.98248
5ebad1b04c06b707e80d621d;Abergina;NMA-EIAR;13.2312;38.08107
5ebad1b04c06b707e80d621e;Argin Jena;NMA-EIAR;13.23173;38.155
5ebad1b04c06b707e80d621f;Abedebay Tseyon;NMA-EIAR;13.17808;38.05303
5ebad1b04c06b707e80d6220;Beles;NMA-EIAR;13.11116;38.03132
5ebad1b04c06b707e80d6221;Segi;NMA-EIAR;13.06417;38.00037
5ebad1b04c06b707e80d6222;Gomiya;NMA-EIAR;13.11746;37.95996
5ebad1b04c06b707e80d6223;Seramo Dirgemes;NMA-EIAR;13.02708;37.96578
5ebad1b04c06b707e80d6224;Loma;NMA-EIAR;12.96381;37.98914
5ebad1b04c06b707e80d6225;Atamta Zibila;NMA-EIAR;12.90347;38.02469
5ebad1b04c06b707e80d6226;Adi Tewlenyi;NMA-EIAR;13.24459;37.56744
5ebad1b04c06b707e80d6227;Arade;NMA-EIAR;13.14722;37.53843
5ebad1b04c06b707e80d6228;Ayerefeda;NMA-EIAR;13.15315;37.63565
5ebad1b04c06b707e80d6229;Guchereb;NMA-EIAR;13.10218;37.67548
5ebad1b04c06b707e80d622a;Kenta;NMA-EIAR;13.09817;37.61766
5ebad1b04c06b707e80d622b;Chelaye Deba;NMA-EIAR;13.06352;37.59627
5ebad1b04c06b707e80d622c;Bentero;NMA-EIAR;13.07638;37.55404
5ebad1b04c06b707e80d622d;Sebentara;NMA-EIAR;13.00873;37.5854
5ebad1b04c06b707e80d622e;Gewtamba;NMA-EIAR;12.97327;37.58441
5ebad1b04c06b707e80d622f;Gurnaba;NMA-EIAR;13.02397;37.64052
5ebad1b04c06b707e80d6230;Bera;NMA-EIAR;12.97425;37.6701
5ebad1b04c06b707e80d6231;Arebur;NMA-EIAR;13.06764;37.73295
5ebad1b04c06b707e80d6232;Dabat Zurya;NMA-EIAR;13.00955;37.74329
5ebad1b04c06b707e80d6233;Chila;NMA-EIAR;12.97424;37.72137
5ebad1b04c06b707e80d6234;Benker;NMA-EIAR;12.93677;37.71448
5ebad1b04c06b707e80d6235;Carbita;NMA-EIAR;12.90373;37.69801
5ebad1b04c06b707e80d6236;Dara;NMA-EIAR;12.93752;37.75867
5ebad1b04c06b707e80d6237;Kareha;NMA-EIAR;12.94936;37.81476
5ebad1b04c06b707e80d6238;Talak Mesk;NMA-EIAR;13.00147;37.79939
5ebad1b04c06b707e80d6239;Abetera;NMA-EIAR;13.04463;37.78756
5ebad1b04c06b707e80d623a;Weken Zurya;NMA-EIAR;13.08923;37.82565
5ebad1b04c06b707e80d623b;Doka;NMA-EIAR;13.04499;37.84187
5ebad1b04c06b707e80d623c;Tenseye;NMA-EIAR;12.99805;37.8472
5ebad1b04c06b707e80d623d;Janbelew;NMA-EIAR;13.02849;37.88326
5ebad1b04c06b707e80d623e;Doromamaye;NMA-EIAR;12.95175;37.93741
5ebad1b04c06b707e80d623f;Defiya;NMA-EIAR;12.95008;37.88289
5ebad1b04c06b707e80d6240;Korhumer 02;NMA-EIAR;13.50456;36.31346
5ebad1b04c06b707e80d6241;Korhumer 01;NMA-EIAR;13.45429;36.31638
5ebad1b04c06b707e80d6242;Grar wuha;NMA-EIAR;13.36166;36.33846
5ebad1b04c06b707e80d6243;Dirmaga;NMA-EIAR;13.39128;36.45452
5ebad1b04c06b707e80d6244;Zemenemarak01;NMA-EIAR;13.2973;36.42506
5ebad1b04c06b707e80d6245;Zemenemarak02;NMA-EIAR;13.26676;36.54383
5ebad1b04c06b707e80d6246;Wedinur;NMA-EIAR;13.14595;36.70911
5ebad1b04c06b707e80d6247;Plantation;NMA-EIAR;13.63118;36.32917
5ebad1b04c06b707e80d6248;Ergoye;NMA-EIAR;13.39564;36.68217
5ebad1b04c06b707e80d6249;Sorqa;NMA-EIAR;13.36166;36.99611
5ebad1b04c06b707e80d624a;Neadr;NMA-EIAR;13.38729;37.19834
5ebad1b04c06b707e80d624b;Sarna;NMA-EIAR;13.39276;37.23626
5ebad1b04c06b707e80d624c;Zana;NMA-EIAR;13.31376;37.09921
5ebad1b04c06b707e80d624d;Mayagam;NMA-EIAR;13.28078;37.23743
5ebad1b04c06b707e80d624e;Dawuchena;NMA-EIAR;13.26541;37.33869
5ebad1b04c06b707e80d624f;Kerakera;NMA-EIAR;13.34255;37.38861
5ebad1b04c06b707e80d6250;Gebrael;NMA-EIAR;13.29572;37.41482
5ebad1b04c06b707e80d6251;Weqro;NMA-EIAR;13.3318;37.4319
5ebad1b04c06b707e80d6252;Zegba;NMA-EIAR;13.3187;37.49951
5ebad1b04c06b707e80d6253;Sheni;NMA-EIAR;13.20754;37.47635
5ebad1b04c06b707e80d6254;Seferaseka;NMA-EIAR;13.19705;37.41313
5ebad1b04c06b707e80d6255;Adet;NMA-EIAR;13.15172;37.34203
5ebad1b04c06b707e80d6256;Werk Midir;NMA-EIAR;12.9317;37.38843
5ebad1b04c06b707e80d6257;Merena;NMA-EIAR;12.91331;37.4541
5ebad1b04c06b707e80d6258;Atse Midir;NMA-EIAR;12.83944;37.48965
5ebad1b04c06b707e80d6259;Janikaw Kunjiba;NMA-EIAR;12.8387;37.4532
5ebad1b04c06b707e80d625a;Alegina Muna;NMA-EIAR;12.78808;37.47404
5ebad1b04c06b707e80d625b;Jiha;NMA-EIAR;12.79724;37.42039
5ebad1b04c06b707e80d625c;Kech Ayenet Weha;NMA-EIAR;12.79945;37.39689
5ebad1b04c06b707e80d625d;KechKem Fenta;NMA-EIAR;12.83337;37.3619
5ebad1b04c06b707e80d625e;Addisge;NMA-EIAR;12.78622;37.35327
5ebad1b04c06b707e80d625f;Mahin;NMA-EIAR;12.82601;37.31164
5ebad1b04c06b707e80d6260;Daziwen;NMA-EIAR;12.79239;37.2411
5ebad1b04c06b707e80d6261;Ledaho;NMA-EIAR;12.72933;37.25392
5ebad1b04c06b707e80d6262;Genbera angereb;NMA-EIAR;12.75085;37.31208
5ebad1b04c06b707e80d6263;Shumara Lomiye;NMA-EIAR;12.76097;37.40225
5ebad1b04c06b707e80d6264;Gramta;NMA-EIAR;12.76166;37.45433
5ebad1b04c06b707e80d6265;Chira Anbezo;NMA-EIAR;12.71552;37.49075
5ebad1b04c06b707e80d6266;Abila Sayna;NMA-EIAR;12.69056;37.52181
5ebad1b04c06b707e80d6267;Bambilo;NMA-EIAR;12.67442;37.54878
5ebad1b04c06b707e80d6268;Kerker Bale Egzer;NMA-EIAR;12.71659;37.43696
5ebad1b04c06b707e80d6269;Kerker Endibina;NMA-EIAR;12.70714;37.40156
5ebad1b04c06b707e80d626a;Chila Dewel;NMA-EIAR;12.69652;37.37503
5ebad1b04c06b707e80d626b;Werengib;NMA-EIAR;12.6487;37.41631
5ebad1b04c06b707e80d626c;Gondoroch Mariyam;NMA-EIAR;12.62652;37.40087
5ebad1b04c06b707e80d626d;Chachkuna;NMA-EIAR;12.60853;37.37093
5ebad1b04c06b707e80d626e;Keriwa Mezewa;NMA-EIAR;12.65524;37.3689
5ebad1b04c06b707e80d626f;Birbebiho Enchinako;NMA-EIAR;12.68688;37.33283
5ebad1b04c06b707e80d6270;Begamge;NMA-EIAR;12.61418;37.33697
5ebad1b04c06b707e80d6271;Weyinoch Gizana;NMA-EIAR;12.63681;37.3013
5ebad1b04c06b707e80d6272;Jinkira;NMA-EIAR;12.6891;37.29843
5ebad1b04c06b707e80d6273;Sata Midiraro;NMA-EIAR;12.65995;37.25835
5ebad1b04c06b707e80d6274;Chankiya;NMA-EIAR;12.64346;37.23021
5ebad1b04c06b707e80d6275;Zerayige;NMA-EIAR;12.63323;37.20259
5ebad1b04c06b707e80d6276;Keltewo;NMA-EIAR;12.88047;37.51382
5ebad1b04c06b707e80d6277;Mereba;NMA-EIAR;12.9388;37.52666
5ebad1b04c06b707e80d6278;Asgedom;NMA-EIAR;12.92175;37.60067
5ebad1b04c06b707e80d6279;Sewora;NMA-EIAR;12.86345;37.59056
5ebad1b04c06b707e80d627a;Enkashi Kenbada;NMA-EIAR;12.8772;37.65584
5ebad1b04c06b707e80d627b;Werke Domo;NMA-EIAR;12.8524;37.71082
5ebad1b04c06b707e80d627c;Gunter;NMA-EIAR;12.83274;37.74245
5ebad1b04c06b707e80d627d;Doro Wuha;NMA-EIAR;12.86081;37.77618
5ebad1b04c06b707e80d627e;Chelfo Wenze;NMA-EIAR;12.89577;37.79102
5ebad1b04c06b707e80d627f;Tewa;NMA-EIAR;12.88918;37.87211
5ebad1b04c06b707e80d6280;Eykela;NMA-EIAR;12.84522;37.97733
5ebad1b04c06b707e80d6281;Gefual Buakesho;NMA-EIAR;12.78161;38.02553
5ebad1b04c06b707e80d6282;Somoya;NMA-EIAR;12.74587;38.10197
5ebad1b04c06b707e80d6283;Guara;NMA-EIAR;12.6907;38.04276
5ebad1b04c06b707e80d6284;Gecheho;NMA-EIAR;12.70503;37.97664
5ebad1b04c06b707e80d6285;Chekeki;NMA-EIAR;12.74911;37.90677
5ebad1b04c06b707e80d6286;Fentorge;NMA-EIAR;12.77622;37.95821
5ebad1b04c06b707e80d6287;Checheho;NMA-EIAR;12.81895;37.90216
5ebad1b04c06b707e80d6288;Mito Buakesho;NMA-EIAR;12.82739;37.82246
5ebad1b04c06b707e80d6289;Senbetge;NMA-EIAR;12.7691;37.8149
5ebad1b04c06b707e80d628a;Gunko Baldorge;NMA-EIAR;12.79529;37.71993
5ebad1b04c06b707e80d628b;Weybey Janjogol;NMA-EIAR;12.8282;37.652
5ebad1b04c06b707e80d628c;Addisge Arbachan;NMA-EIAR;12.82191;37.58033
5ebad1b04c06b707e80d628d;Gunda Chugi;NMA-EIAR;12.81153;37.53349
5ebad1b04c06b707e80d628e;Koso Yeambaras;NMA-EIAR;12.75152;37.55849
5ebad1b04c06b707e80d628f;Amba Giorges Zuria;NMA-EIAR;12.78238;37.64398
5ebad1b04c06b707e80d6290;Senka Tekem;NMA-EIAR;12.75728;37.66869
5ebad1b04c06b707e80d6291;Bera;NMA-EIAR;12.74854;37.74197
5ebad1b04c06b707e80d6292;Kentefa;NMA-EIAR;12.71268;37.84139
5ebad1b04c06b707e80d6293;Jojohi;NMA-EIAR;12.69484;37.76924
5ebad1b04c06b707e80d6294;Qura Jege;NMA-EIAR;12.71752;37.70647
5ebad1b04c06b707e80d6295;Dongordeba;NMA-EIAR;12.69222;37.66945
5ebad1b04c06b707e80d6296;Doberaso;NMA-EIAR;12.70153;37.62489
5ebad1b04c06b707e80d6297;Yesak Deber;NMA-EIAR;12.73603;37.60148
5ebad1b04c06b707e80d6298;Deber Ledeta;NMA-EIAR;12.6947;37.57726
5ebad1b04c06b707e80d6299;Eyva;NMA-EIAR;12.6445;37.57854
5ebad1b04c06b707e80d629a;Dergaje;NMA-EIAR;12.65256;37.60647
5ebad1b04c06b707e80d629b;Nora Stadekan;NMA-EIAR;12.6317;37.65976
5ebad1b04c06b707e80d629c;Taga;NMA-EIAR;12.6376;37.74841
5ebad1b04c06b707e80d629d;Sihor;NMA-EIAR;12.61735;37.53612
5ebad1b04c06b707e80d629e;Dewa Damot;NMA-EIAR;12.56649;37.53529
5ebad1b04c06b707e80d629f;Ayibayesus;NMA-EIAR;12.59576;37.56983
5ebad1b04c06b707e80d62a0;Arage;NMA-EIAR;12.59374;37.61895
5ebad1b04c06b707e80d62a1;Abunesemra;NMA-EIAR;12.53502;37.61695
5ebad1b04c06b707e80d62a2;Wezebamba;NMA-EIAR;12.52568;37.54806
5ebad1b04c06b707e80d62a3;Macha;NMA-EIAR;12.4916;37.51513
5ebad1b04c06b707e80d62a4;Tachtedabrihala;NMA-EIAR;12.46305;37.46107
5ebad1b04c06b707e80d62a5;Minyichir gebriel;NMA-EIAR;12.45107;37.42623
5ebad1b04c06b707e80d62a6;Hamsafej wana;NMA-EIAR;12.42119;37.45158
5ebad1b04c06b707e80d62a7;Minziro;NMA-EIAR;12.43738;37.4906
5ebad1b04c06b707e80d62a8;Birbowakis;NMA-EIAR;12.45836;37.53317
5ebad1b04c06b707e80d62a9;Dogola chinchaye;NMA-EIAR;12.44434;37.57383
5ebad1b04c06b707e80d62aa;Donkez zantira;NMA-EIAR;12.47448;37.6477
5ebad1b04c06b707e80d62ab;Desmariyam denzaz;NMA-EIAR;12.40984;37.62687
5ebad1b04c06b707e80d62ac;Ambachira;NMA-EIAR;12.39067;37.67438
5ebad1b04c06b707e80d62ad;Shwana;NMA-EIAR;12.38684;37.72421
5ebad1b04c06b707e80d62ae;Mereda;NMA-EIAR;12.35221;37.71192
5ebad1b04c06b707e80d62af;Yimado;NMA-EIAR;12.34579;37.66332
5ebad1b04c06b707e80d62b0;Chihiramanterno;NMA-EIAR;12.33366;37.59856
5ebad1b04c06b707e80d62b1;Joyira;NMA-EIAR;12.39443;37.59139
5ebad1b04c06b707e80d62b2;Tsiyonsegowach;NMA-EIAR;12.36965;37.55887
5ebad1b04c06b707e80d62b3;Jaja Bahri genb;NMA-EIAR;12.40341;37.50251
5ebad1b04c06b707e80d62b4;Zengaj;NMA-EIAR;12.38088;37.4811
5ebad1b04c06b707e80d62b5;Layiyeduge;NMA-EIAR;12.35926;37.48661
5ebad1b04c06b707e80d62b6;Lamba arbayitu insisa;NMA-EIAR;12.32824;37.50779
5ebad1b04c06b707e80d62b7;Shahego menge;NMA-EIAR;12.29883;37.55447
5ebad1b04c06b707e80d62b8;Furka dangure;NMA-EIAR;12.25024;37.56821
5ebad1b04c06b707e80d62b9;Sihor sar wuha;NMA-EIAR;12.25781;37.61144
5ebad1b04c06b707e80d62ba;Debsan tikara;NMA-EIAR;12.26213;37.65064
5ebad1b04c06b707e80d62bb;Gebriel;NMA-EIAR;12.21177;37.65859
5ebad1b04c06b707e80d62bc;Sendoba;NMA-EIAR;12.20151;37.71547
5ebad1b04c06b707e80d62bd;Debresalam;NMA-EIAR;12.17044;37.67018
5ebad1b04c06b707e80d62be;Miniraha abawarka;NMA-EIAR;12.1735;37.6084
5ebad1b04c06b707e80d62bf;Gana Yohanis;NMA-EIAR;12.58109;37.23494
5ebad1b04c06b707e80d62c0;Mequamia Seha Menge;NMA-EIAR;12.56629;37.30613
5ebad1b04c06b707e80d62c1;Dirmara;NMA-EIAR;12.55773;37.34845
5ebad1b04c06b707e80d62c2;Gendiwa Balengeb;NMA-EIAR;12.49953;37.35353
5ebad1b04c06b707e80d62c3;Amba Gualit;NMA-EIAR;12.50134;37.30234
5ebad1b04c06b707e80d62c4;Senbet Debir;NMA-EIAR;12.53525;37.25886
5ebad1b04c06b707e80d62c5;Buwasmano;NMA-EIAR;12.49824;37.23969
5ebad1b04c06b707e80d62c6;Wawicha Chegen;NMA-EIAR;12.4642;37.21883
5ebad1b04c06b707e80d62c7;Chenkela Abona Chenkela Iyesus;NMA-EIAR;12.46085;37.16559
5ebad1b04c06b707e80d62c8;Guntir;NMA-EIAR;12.48655;37.13536
5ebad1b04c06b707e80d62c9;Jorideberga;NMA-EIAR;12.44064;37.12269
5ebad1b04c06b707e80d62ca;Hana Mariam;NMA-EIAR;12.42927;37.08111
5ebad1b04c06b707e80d62cb;Sankisa;NMA-EIAR;12.40317;37.12341
5ebad1b04c06b707e80d62cc;Semra Kekeza;NMA-EIAR;12.40803;37.17136
5ebad1b04c06b707e80d62cd;Abawiram;NMA-EIAR;12.42559;37.21739
5ebad1b04c06b707e80d62ce;Fenja Barcha;NMA-EIAR;12.43618;37.27304
5ebad1b04c06b707e80d62cf;Atikilitna Telemit;NMA-EIAR;12.45303;37.3139
5ebad1b04c06b707e80d62d0;Gebebachilona salij;NMA-EIAR;12.41721;37.33182
5ebad1b04c06b707e80d62d1;Girarge;NMA-EIAR;12.46428;37.3788
5ebad1b04c06b707e80d62d2;Sufan Karamerew Gubia;NMA-EIAR;12.42032;37.38799
5ebad1b04c06b707e80d62d3;Wekerako Dalko;NMA-EIAR;12.38093;37.41591
5ebad1b04c06b707e80d62d4;Guramba Mikaelna Jankura;NMA-EIAR;12.3741;37.36149
5ebad1b04c06b707e80d62d5;Guramba Batana Chanqua;NMA-EIAR;12.35722;37.33063
5ebad1b04c06b707e80d62d6;Jangua Mariamna Jangua Abriham;NMA-EIAR;12.37313;37.29908
5ebad1b04c06b707e80d62d7;Janda Kobla;NMA-EIAR;12.38778;37.23929
5ebad1b04c06b707e80d62d8;Meskele Kristos;NMA-EIAR;12.35737;37.26493
5ebad1b04c06b707e80d62d9;Darna Gawirna;NMA-EIAR;12.33643;37.20357
5ebad1b04c06b707e80d62da;Guarhe jibjiba;NMA-EIAR;12.36428;37.15343
5ebad1b04c06b707e80d62db;Fentayena Richacha Bebeha;NMA-EIAR;12.31371;37.12873
5ebad1b04c06b707e80d62dc;Tezeba Gembera;NMA-EIAR;12.29425;37.18128
5ebad1b04c06b707e80d62dd;Gurandi Wenbebiha;NMA-EIAR;12.26367;37.19856
5ebad1b04c06b707e80d62de;Mange;NMA-EIAR;12.22038;37.19323
5ebad1b04c06b707e80d62df;Abirjiha Dihano Wawa;NMA-EIAR;12.2489;37.25537
5ebad1b04c06b707e80d62e0;Chenker Cherkos;NMA-EIAR;12.31666;37.25945
5ebad1b04c06b707e80d62e1;Seraba Dablo;NMA-EIAR;12.30448;37.31499
5ebad1b04c06b707e80d62e2;Achera;NMA-EIAR;12.29106;37.35205
5ebad1b04c06b707e80d62e3;Debirzuria Adisgetsion;NMA-EIAR;12.30193;37.38009
5ebad1b04c06b707e80d62e4;Arebia Dibakesge;NMA-EIAR;12.33985;37.38559
5ebad1b04c06b707e80d62e5;Jerjer Abanov;NMA-EIAR;12.33129;37.45175
5ebad1b04c06b707e80d62e6;Awiha Abona Tana Weyina;NMA-EIAR;12.3019;37.4179
5ebad1b04c06b707e80d62e7;Alenge;NMA-EIAR;12.76194;36.75115
5ebad1b04c06b707e80d62e8;Kerbiya;NMA-EIAR;12.78534;36.87278
5ebad1b04c06b707e80d62e9;Uazba;NMA-EIAR;12.82033;36.94664
5ebad1b04c06b707e80d62ea;Andnet;NMA-EIAR;12.83223;37.03282
5ebad1b04c06b707e80d62eb;Key Afer;NMA-EIAR;12.85712;37.12576
5ebad1b04c06b707e80d62ec;Tenbebedo;NMA-EIAR;12.78371;37.16649
5ebad1b04c06b707e80d62ed;Dengolto;NMA-EIAR;12.83657;37.10467
5ebad1b04c06b707e80d62ee;Dangura;NMA-EIAR;12.76855;37.11323
5ebad1b04c06b707e80d62ef;Mendere Giyorgis;NMA-EIAR;12.77992;37.04826
5ebad1b04c06b707e80d62f0;Anbeza;NMA-EIAR;12.76437;36.98678
5ebad1b04c06b707e80d62f1;Gaza;NMA-EIAR;12.72109;36.96764
5ebad1b04c06b707e80d62f2;Shutera;NMA-EIAR;12.70077;36.87085
5ebad1b04c06b707e80d62f3;Chako;NMA-EIAR;12.66347;36.8198
5ebad1b04c06b707e80d62f4;Kebir Lomiye;NMA-EIAR;12.62001;36.76044
5ebad1b04c06b707e80d62f5;Ingdba;NMA-EIAR;12.5557;36.67084
5ebad1b04c06b707e80d62f6;Sheharda;NMA-EIAR;12.46153;36.64893
5ebad1b04c06b707e80d62f7;Godo Molalit;NMA-EIAR;12.53308;36.73883
5ebad1b04c06b707e80d62f8;Minibaks Dengorsa;NMA-EIAR;12.53125;36.84852
5ebad1b04c06b707e80d62f9;Tenbera Kiwa;NMA-EIAR;12.56757;36.94602
5ebad1b04c06b707e80d62fa;Leza Anba;NMA-EIAR;12.60812;36.89278
5ebad1b04c06b707e80d62fb;Kenteb Daza;NMA-EIAR;12.64668;36.96008
5ebad1b04c06b707e80d62fc;Kushayna Mojjowa;NMA-EIAR;12.68646;37.03491
5ebad1b04c06b707e80d62fd;Bezaho Mekenet;NMA-EIAR;12.60312;37.02329
5ebad1b04c06b707e80d62fe;Ingdaye;NMA-EIAR;12.64457;37.06167
5ebad1b04c06b707e80d62ff;Adis Zemen;NMA-EIAR;12.7112;37.09563
5ebad1b04c06b707e80d6300;Adis Alem;NMA-EIAR;12.63256;37.10824
5ebad1b04c06b707e80d6301;Mrt Amba;NMA-EIAR;12.67958;37.14651
5ebad1b04c06b707e80d6302;Abel Wuha;NMA-EIAR;12.74743;37.19835
5ebad1b04c06b707e80d6303;Mdre bara;NMA-EIAR;12.69318;37.20173
5ebad1b04c06b707e80d6304;Alem Tsehay;NMA-EIAR;12.53083;37.17881
5ebad1b04c06b707e80d6305;Dl Amba;NMA-EIAR;12.58162;37.15355
5ebad1b04c06b707e80d6306;Nara Awurarda;NMA-EIAR;12.53147;37.10481
5ebad1b04c06b707e80d6307;Laza Buladege;NMA-EIAR;12.58674;37.10431
5ebad1b04c06b707e80d6308;Tuber Serako;NMA-EIAR;12.56001;37.05371
5ebad1b04c06b707e80d6309;Iyaho Seraba;NMA-EIAR;12.52367;37.03992
5ebad1b04c06b707e80d630a;Walduba;NMA-EIAR;12.52524;36.9673
5ebad1b04c06b707e80d630b;Tenfwa Gwaba;NMA-EIAR;12.45965;36.91529
5ebad1b04c06b707e80d630c;Dengel Wenbelleg;NMA-EIAR;12.44595;36.80456
5ebad1b04c06b707e80d630d;Chaliya Debr;NMA-EIAR;12.41074;36.94405
5ebad1b04c06b707e80d630e;Awiha Abona Tana Weyina;NMA-EIAR;12.48718;37.02987
5ebad1b04c06b707e80d630f;Kenwata Amanuel;NMA-EIAR;12.47549;37.08226
5ebad1b04c06b707e80d6310;Chandba Delega;NMA-EIAR;12.39568;37.027
5ebad1b04c06b707e80d6311;Kwakgembelwa;NMA-EIAR;12.35653;37.05132
5ebad1b04c06b707e80d6312;Delelo;NMA-EIAR;13.23615;36.1587
5ebad1b04c06b707e80d6313;Mesheha;NMA-EIAR;13.12083;36.43682
5ebad1b04c06b707e80d6314;Awasa;NMA-EIAR;12.98127;36.59195
5ebad1b04c06b707e80d6315;Achera;NMA-EIAR;12.88579;36.716
5ebad1b04c06b707e80d6316;Zebach Bahir;NMA-EIAR;12.91874;36.4014
5ebad1b04c06b707e80d6317;Mender 6 7 8;NMA-EIAR;12.95646;36.24393
5ebad1b04c06b707e80d6318;Kokit;NMA-EIAR;12.85388;36.19981
5ebad1b04c06b707e80d6319;Kumer Aftit;NMA-EIAR;12.82429;36.34428
5ebad1b04c06b707e80d631a;Genda Wuha;NMA-EIAR;12.72408;36.4546
5ebad1b04c06b707e80d631b;Meka;NMA-EIAR;12.65968;36.52224
5ebad1b04c06b707e80d631c;Kemechela;NMA-EIAR;12.72421;36.62931
5ebad1b04c06b707e80d631d;Awlala Akushara;NMA-EIAR;12.59961;36.60449
5ebad1b04c06b707e80d631e;Lencha;NMA-EIAR;12.54679;36.46044
5ebad1b04c06b707e80d631f;Agamwuha Lemlem Terara;NMA-EIAR;12.69904;36.32283
5ebad1b04c06b707e80d6320;Das Michael;NMA-EIAR;12.75435;36.1818
5ebad1b04c06b707e80d6321;Tumet Mendoka;NMA-EIAR;12.67063;36.00197
5ebad1b04c06b707e80d6322;Shinfa Shekuriya;NMA-EIAR;12.64946;36.11608
5ebad1b04c06b707e80d6323;Gubay Jejebit;NMA-EIAR;12.61529;36.26059
5ebad1b04c06b707e80d6324;Shashge;NMA-EIAR;12.41033;36.46655
5ebad1b04c06b707e80d6325;Farm Land;NMA-EIAR;13.02939;36.18197
5ebad1b04c06b707e80d6326;Selferedi;NMA-EIAR;12.55198;35.94557
5ebad1b04c06b707e80d6327;Bedela;NMA-EIAR;12.4899;36.16318
5ebad1b04c06b707e80d6328;Kozera;NMA-EIAR;12.46216;36.30409
5ebad1b04c06b707e80d6329;Zana;NMA-EIAR;12.25988;36.3815
5ebad1b04c06b707e80d632a;Abazenge;NMA-EIAR;12.16019;36.3206
5ebad1b04c06b707e80d632b;Daza;NMA-EIAR;12.2899;36.25943
5ebad1b04c06b707e80d632c;Wefta;NMA-EIAR;12.30671;36.12379
5ebad1b04c06b707e80d632d;Dubaba;NMA-EIAR;12.41514;35.88686
5ebad1b04c06b707e80d632e;Musabadima;NMA-EIAR;12.45357;35.69638
5ebad1b04c06b707e80d632f;Dizna Gumiz Weha;NMA-EIAR;12.41603;35.71768
5ebad1b04c06b707e80d6330;Bermel;NMA-EIAR;12.38127;35.72577
5ebad1b04c06b707e80d6331;Mehadid;NMA-EIAR;12.31448;35.74512
5ebad1b04c06b707e80d6332;Gelegu;NMA-EIAR;12.21494;35.89804
5ebad1b04c06b707e80d6333;Ykaho;NMA-EIAR;12.14914;36.07283
5ebad1b04c06b707e80d6334;Abtegaho;NMA-EIAR;12.19092;36.13433
5ebad1b04c06b707e80d6335;Kuza;NMA-EIAR;12.14878;36.26662
5ebad1b04c06b707e80d6336;Mugechit;NMA-EIAR;12.08404;36.36692
5ebad1b04c06b707e80d6337;Kinevi;NMA-EIAR;12.07691;36.17822
5ebad1b04c06b707e80d6338;Banbaho;NMA-EIAR;12.07515;35.9498
5ebad1b04c06b707e80d6339;Sefafi Erisha;NMA-EIAR;12.58838;35.7065
5ebad1b04c06b707e80d633a;Alatish Park;NMA-EIAR;12.28791;35.71523
5ebad1b04c06b707e80d633b;Kaka{37};NMA-EIAR;12.0341;36.52717
5ebad1b04c06b707e80d633c;Garasge {35};NMA-EIAR;12.03284;36.64729
5ebad1b04c06b707e80d633d;Aditaya {33};NMA-EIAR;12.069;36.69073
5ebad1b04c06b707e80d633e;Chimalen Bez {32};NMA-EIAR;12.11061;36.71314
5ebad1b04c06b707e80d633f;Cheba {28};NMA-EIAR;12.06955;36.84956
5ebad1b04c06b707e80d6340;Atsed Mariya {26};NMA-EIAR;12.01338;36.83993
5ebad1b04c06b707e80d6341;Bete Semaniya {29};NMA-EIAR;12.01837;36.75887
5ebad1b04c06b707e80d6342;Fnjit {36};NMA-EIAR;11.9437;36.62143
5ebad1b04c06b707e80d6343;Abin {06};NMA-EIAR;11.93937;36.72081
5ebad1b04c06b707e80d6344;Wange Tegeye {27};NMA-EIAR;11.97659;36.79394
5ebad1b04c06b707e80d6345;Gamaw Bar {03};NMA-EIAR;11.89784;36.82418
5ebad1b04c06b707e80d6346;Kezen Shahura {02};NMA-EIAR;11.92074;36.88425
5ebad1b04c06b707e80d6347;Atuga {07};NMA-EIAR;11.98308;36.93862
5ebad1b04c06b707e80d6348;Esey Debr Banba Gubiya jantega;NMA-EIAR;12.01832;36.9923
5ebad1b04c06b707e80d6349;Dengel Ber {09};NMA-EIAR;11.96257;36.99271
5ebad1b04c06b707e80d634a;Ahicha Mangur {08};NMA-EIAR;11.90918;36.95036
5ebad1b04c06b707e80d634b;Embeta Degon {04};NMA-EIAR;11.84578;36.829
5ebad1b04c06b707e80d634c;Chira Sekela {05};NMA-EIAR;11.90768;36.76304
5ebad1b04c06b707e80d634d;Wendelefa {45};NMA-EIAR;11.86006;36.64666
5ebad1b04c06b707e80d634e;Saba Uz {43};NMA-EIAR;11.82197;36.75846
5ebad1b04c06b707e80d634f;Geneta Guhancha {47};NMA-EIAR;11.76939;36.83108
5ebad1b04c06b707e80d6350;Bragawda {46};NMA-EIAR;11.71171;36.76914
5ebad1b04c06b707e80d6351;Mengele Gigirsi {44};NMA-EIAR;11.76294;36.68287
5ebad1b04c06b707e80d6352;Amicha Weha;NMA-EIAR;12.02509;36.91044
5ebad1b04c06b707e80d6353;ABIZI;NMA-EIAR;12.69196;37.88762
5ebad1b04c06b707e80d6354;FILIKILIK;NMA-EIAR;12.64159;37.98875
5ebad1b04c06b707e80d6355;ASHAKULA;NMA-EIAR;12.60225;37.94797
5ebad1b04c06b707e80d6356;TEBITEBITA;NMA-EIAR;12.64454;37.86658
5ebad1b04c06b707e80d6357;SAMI;NMA-EIAR;12.60519;37.81098
5ebad1b04c06b707e80d6358;JANIDAB;NMA-EIAR;12.57331;37.88928
5ebad1b04c06b707e80d6359;LAVA MARIYAM;NMA-EIAR;12.55015;37.94095
5ebad1b04c06b707e80d635a;ASIWAGARI;NMA-EIAR;12.52642;37.85961
5ebad1b04c06b707e80d635b;ABIYE;NMA-EIAR;12.53581;37.79869
5ebad1b04c06b707e80d635c;MACHA;NMA-EIAR;12.57502;37.74432
5ebad1b04c06b707e80d635d;KOZA;NMA-EIAR;12.55789;37.68024
5ebad1b04c06b707e80d635e;AYISEG;NMA-EIAR;12.51818;37.72595
5ebad1b04c06b707e80d635f;FENITA;NMA-EIAR;12.4825;37.71282
5ebad1b04c06b707e80d6360;DIKWANA;NMA-EIAR;12.48005;37.78151
5ebad1b04c06b707e80d6361;SHURA;NMA-EIAR;12.48771;37.90279
5ebad1b04c06b707e80d6362;ABAYITERA;NMA-EIAR;12.43901;37.86716
5ebad1b04c06b707e80d6363;KALAY;NMA-EIAR;12.44492;37.79588
5ebad1b04c06b707e80d6364;GONID EBIRARAG;NMA-EIAR;12.42878;37.72722
5ebad1b04c06b707e80d6365;MENITI;NMA-EIAR;12.39712;37.78811
5ebad1b04c06b707e80d6366;WAREB;NMA-EIAR;12.37517;37.81309
5ebad1b04c06b707e80d6367;DEBOZIGE;NMA-EIAR;12.3585;37.85819
5ebad1b04c06b707e80d6368;ASHIKER TERARA;NMA-EIAR;12.36646;37.88885
5ebad1b04c06b707e80d6369;TALA;NMA-EIAR;12.4051;37.92587
5ebad1b04c06b707e80d636a;GABIZI;NMA-EIAR;12.3466;37.93143
5ebad1b04c06b707e80d636b;DEHUCH;NMA-EIAR;12.27088;37.93945
5ebad1b04c06b707e80d636c;FERIFER;NMA-EIAR;12.30231;37.89939
5ebad1b04c06b707e80d636d;ANITELEZIBA;NMA-EIAR;12.28897;37.85855
5ebad1b04c06b707e80d636e;GULANA;NMA-EIAR;12.30211;37.82737
5ebad1b04c06b707e80d636f;WERARA;NMA-EIAR;12.335;37.81005
5ebad1b04c06b707e80d6370;Adirara;NMA-EIAR;12.68075;38.14173
5ebad1b04c06b707e80d6371;Taritara;NMA-EIAR;12.6679;38.24805
5ebad1b04c06b707e80d6372;Arba Tsegrwa;NMA-EIAR;12.69808;38.36695
5ebad1b04c06b707e80d6373;Digib;NMA-EIAR;12.60585;38.38883
5ebad1b04c06b707e80d6374;Tilli;NMA-EIAR;12.54231;38.26384
5ebad1b04c06b707e80d6375;Michiwa;NMA-EIAR;12.59838;38.16644
5ebad1b04c06b707e80d6376;Kibiza;NMA-EIAR;12.61026;38.07805
5ebad1b04c06b707e80d6377;Muka Tera;NMA-EIAR;12.54157;38.03282
5ebad1b04c06b707e80d6378;Gewana Kotana;NMA-EIAR;12.54658;38.09928
5ebad1b04c06b707e80d6379;Goga;NMA-EIAR;12.48586;38.23296
5ebad1b04c06b707e80d637a;Akita Eyasus;NMA-EIAR;12.4364;38.24855
5ebad1b04c06b707e80d637b;Achikan;NMA-EIAR;12.45502;38.08446
5ebad1b04c06b707e80d637c;Ayiba Sheka;NMA-EIAR;12.46803;38.00603
5ebad1b04c06b707e80d637d;Cherge;NMA-EIAR;12.49538;37.97478
5ebad1b04c06b707e80d637e;Chama Korachi;NMA-EIAR;12.42456;37.96721
5ebad1b04c06b707e80d637f;Dengura;NMA-EIAR;12.40573;38.02872
5ebad1b04c06b707e80d6380;Zozi;NMA-EIAR;12.38732;38.15077
5ebad1b04c06b707e80d6381;Berisa;NMA-EIAR;12.34947;38.07708
5ebad1b04c06b707e80d6382;Keley Shelto;NMA-EIAR;12.33744;38.01562
5ebad1b04c06b707e80d6383;Debire Zana;NMA-EIAR;12.35293;37.9784
5ebad1b04c06b707e80d6384;Abera;NMA-EIAR;13.42839;38.26135
5ebad1b04c06b707e80d6385;Terinasha;NMA-EIAR;13.44621;38.30378
5ebad1b04c06b707e80d6386;Sawkiya;NMA-EIAR;13.47703;38.33125
5ebad1b04c06b707e80d6387;Zaja;NMA-EIAR;13.50411;38.36373
5ebad1b04c06b707e80d6388;Adi Selam;NMA-EIAR;13.54067;38.36293
5ebad1b04c06b707e80d6389;Gicha;NMA-EIAR;13.54973;38.43257
5ebad1b04c06b707e80d638a;Negade Meshageriya;NMA-EIAR;13.53536;38.48941
5ebad1b04c06b707e80d638b;Ateba;NMA-EIAR;13.49647;38.43214
5ebad1b04c06b707e80d638c;Tara;NMA-EIAR;13.46499;38.38565
5ebad1b04c06b707e80d638d;Adamo Mihiret Abina;NMA-EIAR;13.40149;38.33196
5ebad1b04c06b707e80d638e;Gelbena;NMA-EIAR;13.36644;38.34991
5ebad1b04c06b707e80d638f;Chinifera;NMA-EIAR;13.462;38.44417
5ebad1b04c06b707e80d6390;Keriwa;NMA-EIAR;13.44884;38.4919
5ebad1b04c06b707e80d6391;Akuna;NMA-EIAR;13.38727;38.41832
5ebad1b04c06b707e80d6392;Ageta;NMA-EIAR;13.42449;38.51461
5ebad1b04c06b707e80d6393;Deriba;NMA-EIAR;13.47162;38.60582
5ebad1b04c06b707e80d6394;Irin;NMA-EIAR;13.34464;38.69823
5ebad1b04c06b707e80d6395;Chirkiny;NMA-EIAR;13.16468;36.8988
5ebad1b04c06b707e80d6396;Dogaw;NMA-EIAR;13.17682;37.04788
5ebad1b04c06b707e80d6397;Kokora;NMA-EIAR;13.16232;37.16724
5ebad1b04c06b707e80d6398;Kisha;NMA-EIAR;13.06897;37.22729
5ebad1b04c06b707e80d6399;Yayira;NMA-EIAR;13.06582;37.32794
5ebad1b04c06b707e80d639a;Jingir;NMA-EIAR;13.0347;37.42658
5ebad1b04c06b707e80d639b;Tara;NMA-EIAR;13.03826;37.49207
5ebad1b04c06b707e80d639c;Kenbaw;NMA-EIAR;12.98666;37.36345
5ebad1b04c06b707e80d639d;Berbersog;NMA-EIAR;12.92444;37.27616
5ebad1b04c06b707e80d639e;Waliya;NMA-EIAR;12.85486;37.2614
5ebad1b04c06b707e80d639f;Debere Sina;NMA-EIAR;12.90213;37.22061
5ebad1b04c06b707e80d63a0;Chilkuana;NMA-EIAR;12.98838;37.22188
5ebad1b04c06b707e80d63a1;Fachena;NMA-EIAR;12.90379;37.16411
5ebad1b04c06b707e80d63a2;Sefi Bahir;NMA-EIAR;12.95702;37.10281
5ebad1b04c06b707e80d63a3;May Negad;NMA-EIAR;13.04449;37.11561
5ebad1b04c06b707e80d63a4;Banbil;NMA-EIAR;13.02196;36.99694
5ebad1b04c06b707e80d63a5;Masero Denb;NMA-EIAR;12.9239;37.02803
5ebad1b04c06b707e80d63a6;Felfel;NMA-EIAR;12.88192;36.94736
5ebad1b04c06b707e80d63a7;Mala;NMA-EIAR;12.86259;36.84215
5ebad1b04c06b707e80d63a8;Jansuma;NMA-EIAR;12.97301;36.83245
5ebad1b04c06b707e80d63a9;Mayzaze;NMA-EIAR;12.96582;36.93572
5ebad1b04c06b707e80d63aa;Bifeny;NMA-EIAR;13.05234;36.86483
5ebad1b04c06b707e80d63ab;Kordba;NMA-EIAR;12.34751;36.61292
5ebad1b04c06b707e80d63ac;Chaba;NMA-EIAR;12.29465;36.72355
5ebad1b04c06b707e80d63ad;Bohboh;NMA-EIAR;12.34479;36.78133
5ebad1b04c06b707e80d63ae;Awatihun;NMA-EIAR;12.27476;36.8661
5ebad1b04c06b707e80d63af;Karena;NMA-EIAR;12.31431;36.93806
5ebad1b04c06b707e80d63b0;Sibiserak;NMA-EIAR;12.3059;37.0429
5ebad1b04c06b707e80d63b1;Tach Alewa;NMA-EIAR;12.2771;37.10411
5ebad1b04c06b707e80d63b2;Bambarochemera;NMA-EIAR;12.25995;37.03568
5ebad1b04c06b707e80d63b3;Mekonta atbga;NMA-EIAR;12.19438;37.00525
5ebad1b04c06b707e80d63b4;Aremabiderkun;NMA-EIAR;12.23393;36.95487
5ebad1b04c06b707e80d63b5;Acherwuhejanwuhe;NMA-EIAR;12.22987;36.74785
5ebad1b04c06b707e80d63b6;Kongergdye;NMA-EIAR;12.25756;36.59608
5ebad1b04c06b707e80d63b7;Abyewalkaye;NMA-EIAR;12.21559;36.54409
5ebad1b04c06b707e80d63b8;Konta;NMA-EIAR;12.14811;36.50872
5ebad1b04c06b707e80d63b9;Alisefer;NMA-EIAR;12.159;36.63474
5ebad1b04c06b707e80d63ba;Jerizegerge;NMA-EIAR;12.17805;36.74006
5ebad1b04c06b707e80d63bb;Dnblaagesa;NMA-EIAR;12.13202;36.79403
5ebad1b04c06b707e80d63bc;Begmenkr;NMA-EIAR;12.13949;36.84626
5ebad1b04c06b707e80d63bd;Dukla Arba;NMA-EIAR;12.12838;36.89636
5ebad1b04c06b707e80d63be;Kurabsa;NMA-EIAR;12.15374;36.94165
5ebad1b04c06b707e80d63bf;Chankebergen;NMA-EIAR;12.13094;37.01184
5ebad1b04c06b707e80d63c0;Goyrob gebeyaanbes;NMA-EIAR;12.08011;36.95523
5ebad1b04c06b707e80d63c1;Acherabebechnagalaye;NMA-EIAR;12.06627;37.00478
5ebad1b04c06b707e80d63c2;Hesingurti;NMA-EIAR;12.21653;36.88324
5ebad1b04c06b707e80d63c3;Aykua Chakirin;NMA-EIAR;12.88412;37.36899
5ebad1e14c06b707e80d63c8;Ebinat;NMA-EIAR;12.12396;38.04995
5ebad1e14c06b707e80d63c9;Adis Zemen Town;NMA-EIAR;12.12314;37.77777
5ebad1e14c06b707e80d63ca;Yafiga Town;NMA-EIAR;12.08112;37.72751
5ebad1e14c06b707e80d63cb;Ambo Meda Town;NMA-EIAR;12.1139;37.88506
5ebad1e14c06b707e80d63cc;Wereta Town;NMA-EIAR;11.92328;37.69866
5ebad1e14c06b707e80d63cd;Amedber Town;NMA-EIAR;11.91466;37.88397
5ebad1e14c06b707e80d63ce;Kmirdingay Town;NMA-EIAR;11.81135;38.22227
5ebad1e14c06b707e80d63cf;Gasay Town;NMA-EIAR;11.79555;38.14459
5ebad1e14c06b707e80d63d0;Nefas mewicha Town;NMA-EIAR;11.73371;38.47033
5ebad1e14c06b707e80d63d1;Gobgob Town;NMA-EIAR;11.75158;38.39071
5ebad1e14c06b707e80d63d2;Sali Town;NMA-EIAR;11.72877;38.34507
5ebad1e14c06b707e80d63d3;Arb Gegeya Town;NMA-EIAR;11.6092;38.53931
5ebad1e14c06b707e80d63d4;Wegada Town;NMA-EIAR;11.39968;38.23702
5ebad1e14c06b707e80d63d5;Este Town;NMA-EIAR;11.61199;38.06184
5ebad1e14c06b707e80d63d6;Hamusit Ketrma;NMA-EIAR;11.78338;37.55949
5ebad1e14c06b707e80d63d7;Anibesema Town;NMA-EIAR;11.70648;37.62898
5ebad1e14c06b707e80d63d8;Arib Gebeya;NMA-EIAR;11.63117;37.74644
5ebad1e14c06b707e80d63d9;Debretabor Town;NMA-EIAR;11.86289;38.0212
5ebad1e14c06b707e80d63da;Jara Gedo Town;NMA-EIAR;11.40073;37.88035
5ebad1e14c06b707e80d63db;Wagie Wergaja;NMA-EIAR;12.28835;38.01721
5ebad1e14c06b707e80d63dc;Tare Senba;NMA-EIAR;12.2323;38.01016
5ebad1e14c06b707e80d63dd;Aba Bikila;NMA-EIAR;12.2852;38.09438
5ebad1e14c06b707e80d63de;Ader Seg Abina;NMA-EIAR;12.28441;38.1829
5ebad1e14c06b707e80d63df;Balarb;NMA-EIAR;12.32221;38.25983
5ebad1e14c06b707e80d63e0;Burkoch Aqua Shimoch;NMA-EIAR;12.41548;38.35377
5ebad1e14c06b707e80d63e1;Tigage;NMA-EIAR;12.34371;38.41631
5ebad1e14c06b707e80d63e2;Kita;NMA-EIAR;12.24289;38.36366
5ebad1e14c06b707e80d63e3;Deber Teklehaymanot;NMA-EIAR;12.17766;38.38128
5ebad1e14c06b707e80d63e4;Gebtsawit;NMA-EIAR;12.101;38.38331
5ebad1e14c06b707e80d63e5;Agisa;NMA-EIAR;12.06936;38.27426
5ebad1e14c06b707e80d63e6;Adisgea Sekongo;NMA-EIAR;12.14219;38.26141
5ebad1e14c06b707e80d63e7;Niqara Chebesgie;NMA-EIAR;12.21584;38.25624
5ebad1e14c06b707e80d63e8;Abegeldi Lusina;NMA-EIAR;12.18523;38.17122
5ebad1e14c06b707e80d63e9;Gela Matebiya;NMA-EIAR;12.20506;38.136
5ebad1e14c06b707e80d63ea;Ayeha Akuha;NMA-EIAR;12.20372;38.09318
5ebad1e14c06b707e80d63eb;Wenberoch Weftima;NMA-EIAR;12.18091;38.01336
5ebad1e14c06b707e80d63ec;Serawedi;NMA-EIAR;12.13198;37.97186
5ebad1e14c06b707e80d63ed;Deber Aba Jale;NMA-EIAR;12.13261;38.02581
5ebad1e14c06b707e80d63ee;Zhiha;NMA-EIAR;12.07604;37.98943
5ebad1e14c06b707e80d63ef;Amistya;NMA-EIAR;12.02525;38.0538
5ebad1e14c06b707e80d63f0;Mechena;NMA-EIAR;12.07225;38.04988
5ebad1e14c06b707e80d63f1;Jiman Dergeha;NMA-EIAR;12.11902;38.08467
5ebad1e14c06b707e80d63f2;selam Lanko;NMA-EIAR;12.12932;38.17423
5ebad1e14c06b707e80d63f3;Shunge Sarngo;NMA-EIAR;12.08595;38.17531
5ebad1e14c06b707e80d63f4;Embachko Guna Guna;NMA-EIAR;12.04648;38.12712
5ebad1e14c06b707e80d63f5;Wariba;NMA-EIAR;11.99041;38.10894
5ebad1e14c06b707e80d63f6;Eyada Weliha;NMA-EIAR;12.01619;38.16493
5ebad1e14c06b707e80d63f7;Gedaye;NMA-EIAR;11.97797;38.20922
5ebad1e14c06b707e80d63f8;Aja Zekelmoka;NMA-EIAR;12.01986;38.23283
5ebad1e14c06b707e80d63f9;Adiya Kurquara;NMA-EIAR;12.00892;38.30568
5ebad1e14c06b707e80d63fa;Mena Dik;NMA-EIAR;11.99731;38.3701
5ebad1e14c06b707e80d63fb;Mena Medhanialem;NMA-EIAR;11.93196;38.30156
5ebad1e14c06b707e80d63fc;Menidere Mariyam;NMA-EIAR;12.30549;37.6899
5ebad1e14c06b707e80d63fd;Bilz Wuha;NMA-EIAR;12.32427;37.75855
5ebad1e14c06b707e80d63fe;Mikael Debir;NMA-EIAR;12.28197;37.7551
5ebad1e14c06b707e80d63ff;Mytad Chamak;NMA-EIAR;12.24532;37.73725
5ebad1e14c06b707e80d6400;Asta Maryam;NMA-EIAR;12.23301;37.79326
5ebad1e14c06b707e80d6401;Mar Tadiyos;NMA-EIAR;12.24918;37.87243
5ebad1e14c06b707e80d6402;Amena;NMA-EIAR;12.21463;37.92859
5ebad1e14c06b707e80d6403;Libo Giyorigis;NMA-EIAR;12.18756;37.88171
5ebad1e14c06b707e80d6404;Darita;NMA-EIAR;12.19528;37.81368
5ebad1e14c06b707e80d6405;Mentogera;NMA-EIAR;12.15763;37.80023
5ebad1e14c06b707e80d6406;Tara Gedam;NMA-EIAR;12.15645;37.73257
5ebad1e14c06b707e80d6407;Ginaza Selikisa;NMA-EIAR;12.11278;37.73634
5ebad1e14c06b707e80d6408;Wusha Tiris;NMA-EIAR;12.11032;37.68077
5ebad1e14c06b707e80d6409;Agid Kiregna;NMA-EIAR;12.11464;37.63789
5ebad1e14c06b707e80d640a;Kab;NMA-EIAR;12.04582;37.63426
5ebad1e14c06b707e80d640b;Tezanba;NMA-EIAR;12.01575;37.60088
5ebad1e14c06b707e80d640c;Genida Wuha;NMA-EIAR;12.00187;37.63321
5ebad1e14c06b707e80d640d;Banibiko Sedeya;NMA-EIAR;11.99417;37.65907
5ebad1e14c06b707e80d640e;Tibaga;NMA-EIAR;12.05431;37.67196
5ebad1e14c06b707e80d640f;Dofag Akababi;NMA-EIAR;12.07327;37.71321
5ebad1e14c06b707e80d6410;Shina Tsyon;NMA-EIAR;12.01474;37.70157
5ebad1e14c06b707e80d6411;Bura Eigizibiheri Ab;NMA-EIAR;12.03933;37.74214
5ebad1e14c06b707e80d6412;Angot Agela;NMA-EIAR;12.0778;37.77414
5ebad1e14c06b707e80d6413;Shehoch Tahra;NMA-EIAR;12.13233;37.83836
5ebad1e14c06b707e80d6414;Bira Abo;NMA-EIAR;12.07808;37.81283
5ebad1e14c06b707e80d6415;Agita;NMA-EIAR;12.05417;37.83282
5ebad1e14c06b707e80d6416;Esitifanos;NMA-EIAR;12.08097;37.87
5ebad1e14c06b707e80d6417;Shamogo Digwadit;NMA-EIAR;12.08902;37.90114
5ebad1e14c06b707e80d6418;Birikute;NMA-EIAR;12.10611;37.93472
5ebad1e14c06b707e80d6419;Nabega;NMA-EIAR;11.96666;37.60193
5ebad1e14c06b707e80d641a;Shaga;NMA-EIAR;11.94241;37.65155
5ebad1e14c06b707e80d641b;Tihua Ena Kokit;NMA-EIAR;11.96201;37.71956
5ebad1e14c06b707e80d641c;Dibasifatra;NMA-EIAR;11.98361;37.76536
5ebad1e14c06b707e80d641d;Reb Gebreal;NMA-EIAR;12.00457;37.80978
5ebad1e14c06b707e80d641e;Addis Betekrstiyan;NMA-EIAR;11.99176;37.8628
5ebad1e14c06b707e80d641f;Wetenb;NMA-EIAR;12.02056;37.93992
5ebad1e14c06b707e80d6420;Zeneg;NMA-EIAR;11.97431;37.91614
5ebad1e14c06b707e80d6421;Amed Ber Zuria;NMA-EIAR;11.92335;37.88274
5ebad1e14c06b707e80d6422;Wej Arba Amba;NMA-EIAR;11.93046;37.8049
5ebad1e14c06b707e80d6423;Wereta Zuria;NMA-EIAR;11.91951;37.70674
5ebad1e14c06b707e80d6424;Shina;NMA-EIAR;11.8903;37.63652
5ebad1e14c06b707e80d6425;Kdste hana;NMA-EIAR;11.90431;37.59649
5ebad1e14c06b707e80d6426;Wagetera;NMA-EIAR;11.90372;37.5526
5ebad1e14c06b707e80d6427;Kuhar Mikael;NMA-EIAR;11.86514;37.67223
5ebad1e14c06b707e80d6428;Kuhar Abo;NMA-EIAR;11.88176;37.71355
5ebad1e14c06b707e80d6429;Hegereselam;NMA-EIAR;11.86082;37.77793
5ebad1e14c06b707e80d642a;Chalmana mntura;NMA-EIAR;11.87379;37.85926
5ebad1e14c06b707e80d642b;Kinti;NMA-EIAR;11.81121;37.8502
5ebad1e14c06b707e80d642c;Sendaga Aba Gunda;NMA-EIAR;11.79288;37.80636
5ebad1e14c06b707e80d642d;Meneguzer;NMA-EIAR;11.83263;37.74019
5ebad1e14c06b707e80d642e;Aba Kiros;NMA-EIAR;11.81005;37.70593
5ebad1e14c06b707e80d642f;Bebeks;NMA-EIAR;11.82064;37.66491
5ebad1e14c06b707e80d6430;Gura Amba Dilmo Dena;NMA-EIAR;11.7484;37.75191
5ebad1e14c06b707e80d6431;Gazen Aridafofot;NMA-EIAR;11.72015;37.82143
5ebad1e14c06b707e80d6432;Medeb Gubda;NMA-EIAR;11.99875;38.00863
5ebad1e14c06b707e80d6433;Jara Shekra;NMA-EIAR;11.96816;38.07737
5ebad1e14c06b707e80d6434;Gentegna;NMA-EIAR;11.95078;38.15466
5ebad1e14c06b707e80d6435;Atkona;NMA-EIAR;11.93237;38.199
5ebad1e14c06b707e80d6436;Debelima;NMA-EIAR;11.9204;38.26072
5ebad1e14c06b707e80d6437;Amjaye;NMA-EIAR;11.87779;38.22261
5ebad1e14c06b707e80d6438;Denkwara;NMA-EIAR;11.83716;38.2528
5ebad1e14c06b707e80d6439;Arga Didim;NMA-EIAR;11.78692;38.22334
5ebad1e14c06b707e80d643a;Wukirotedomender;NMA-EIAR;11.84081;38.18479
5ebad1e14c06b707e80d643b;Ayde;NMA-EIAR;11.88175;38.165
5ebad1e14c06b707e80d643c;Megendi;NMA-EIAR;11.90942;38.12892
5ebad1e14c06b707e80d643d;Limado Debresina;NMA-EIAR;11.92945;38.07895
5ebad1e14c06b707e80d643e;Buro Teraroch;NMA-EIAR;11.92719;38.02585
5ebad1e14c06b707e80d643f;Ayvaniva;NMA-EIAR;11.96637;37.98334
5ebad1e14c06b707e80d6440;Kolaydengorsi;NMA-EIAR;11.92114;37.95692
5ebad1e14c06b707e80d6441;Aringoimbayko;NMA-EIAR;11.83833;37.91193
5ebad1e14c06b707e80d6442;Girbi;NMA-EIAR;11.83785;37.95379
5ebad1e14c06b707e80d6443;Werken;NMA-EIAR;11.79878;37.97986
5ebad1e14c06b707e80d6444;Askuma;NMA-EIAR;11.77401;38.03537
5ebad1e14c06b707e80d6445;Kanat;NMA-EIAR;11.80528;38.05783
5ebad1e14c06b707e80d6446;Huletwanomagera;NMA-EIAR;11.84917;38.08871
5ebad1e14c06b707e80d6447;Indergefarta;NMA-EIAR;11.85595;38.12638
5ebad1e14c06b707e80d6448;Atadidim;NMA-EIAR;11.79339;38.1731
5ebad1e14c06b707e80d6449;Moksh;NMA-EIAR;11.73846;38.20151
5ebad1e14c06b707e80d644a;Sores;NMA-EIAR;11.73199;38.14771
5ebad1e14c06b707e80d644b;Awzet Azawur;NMA-EIAR;11.77104;38.13632
5ebad1e14c06b707e80d644c;Sahirina;NMA-EIAR;11.79786;38.10048
5ebad1e14c06b707e80d644d;Mynet;NMA-EIAR;11.74843;38.09118
5ebad1e14c06b707e80d644e;Huletu Simina;NMA-EIAR;11.73728;38.03611
5ebad1e14c06b707e80d644f;Meskeltsiyon;NMA-EIAR;11.72106;37.99262
5ebad1e14c06b707e80d6450;Genamechawecha;NMA-EIAR;11.76394;37.95108
5ebad1e14c06b707e80d6451;Kwaliha;NMA-EIAR;11.78536;37.91363
5ebad1e14c06b707e80d6452;Zimiha;NMA-EIAR;11.74371;37.87306
5ebad1e14c06b707e80d6453;Mahideramariyam;NMA-EIAR;11.72282;37.9215
5ebad1e14c06b707e80d6454;Safda Giorgis \K.21;NMA-EIAR;11.97738;38.41289
5ebad1e14c06b707e80d6455;Debre Sina \K.26;NMA-EIAR;12.04078;38.48124
5ebad1e14c06b707e80d6456;Bodana Abi Urbi \K.24;NMA-EIAR;12.03136;38.56619
5ebad1e14c06b707e80d6457;Hawariat \K.23;NMA-EIAR;11.9127;38.52933
5ebad1e14c06b707e80d6458;Ambashetina Mesekech \K.20;NMA-EIAR;11.83308;38.47527
5ebad1e14c06b707e80d6459;Key Aferna Sofiya Meda/K.22;NMA-EIAR;11.90108;38.44218
5ebad1e14c06b707e80d645a;Meskal Aza/K.25;NMA-EIAR;11.89052;38.37907
5ebad1e14c06b707e80d645b;Barzibana Titaro \K.05;NMA-EIAR;11.86491;38.31995
5ebad1e14c06b707e80d645c;Titira \K.04;NMA-EIAR;11.77903;38.27052
5ebad1e14c06b707e80d645d;Addis Alem \K.03;NMA-EIAR;11.78827;38.32493
5ebad1e14c06b707e80d645e;Addis Amba \K.07;NMA-EIAR;11.83079;38.38597
5ebad1e14c06b707e80d645f;Moseb terara \K.01;NMA-EIAR;11.78003;38.37508
5ebad1e14c06b707e80d6460;Mequbyia \K.02;NMA-EIAR;11.75706;38.42041
5ebad1e14c06b707e80d6461;Amba Mariam \K.16;NMA-EIAR;11.76685;38.48592
5ebad1e14c06b707e80d6462;Checheho \K.19;NMA-EIAR;11.81084;38.53622
5ebad1e14c06b707e80d6463;Ganga/K.17;NMA-EIAR;11.75863;38.52975
5ebad1e14c06b707e80d6464;Mentoliho \K.18;NMA-EIAR;11.74563;38.57704
5ebad1e14c06b707e80d6465;Arge Beras \K.14;NMA-EIAR;11.70637;38.50942
5ebad1e14c06b707e80d6466;Yediro Gebreal \K.13;NMA-EIAR;11.7072;38.44566
5ebad1e14c06b707e80d6467;Minch wiha \K.12;NMA-EIAR;11.65883;38.38306
5ebad1e14c06b707e80d6468;Zuramba \K.08;NMA-EIAR;11.71268;38.35614
5ebad1e14c06b707e80d6469;Akabit \K.09;NMA-EIAR;11.72788;38.29206
5ebad1e14c06b707e80d646a;Guna gedeba \K.10;NMA-EIAR;11.68724;38.27006
5ebad1e14c06b707e80d646b;Guzana shedo \K.11;NMA-EIAR;11.65066;38.31462
5ebad1e14c06b707e80d646c;Dera kefoye \K.15;NMA-EIAR;11.63112;38.27453
5ebad1e14c06b707e80d646d;Antaria gelbatit \K.06;NMA-EIAR;11.58698;38.27358
5ebad1e14c06b707e80d646e;BETELIHEM (K.16);NMA-EIAR;11.61143;38.36729
5ebad1e14c06b707e80d646f;GOMENIGE (K.14);NMA-EIAR;11.65014;38.4235
5ebad1e14c06b707e80d6470;BET YOHANIS (K.04);NMA-EIAR;11.65689;38.47302
5ebad1e14c06b707e80d6471;DAJAT (K.03);NMA-EIAR;11.66171;38.51174
5ebad1e14c06b707e80d6472;Zhazh{08};NMA-EIAR;11.65261;38.54964
5ebad1e14c06b707e80d6473;ESIKINIDIRAWIT (K.06);NMA-EIAR;11.69532;38.58774
5ebad1e14c06b707e80d6474;AKETO (K.07);NMA-EIAR;11.63028;38.60144
5ebad1e14c06b707e80d6475;Enzhat{K.02};NMA-EIAR;11.60163;38.54039
5ebad1e14c06b707e80d6476;AGAT (K.13);NMA-EIAR;11.61442;38.47826
5ebad1e14c06b707e80d6477;EFIRATA (K.15);NMA-EIAR;11.57743;38.42945
5ebad1e14c06b707e80d6478;ADUKA (K.12);NMA-EIAR;11.54654;38.5023
5ebad1e14c06b707e80d6479;ANISITA (K.05);NMA-EIAR;11.57278;38.61164
5ebad1e14c06b707e80d647a;LIDA (K.09);NMA-EIAR;11.52683;38.65877
5ebad1e14c06b707e80d647b;ADANISA (K.11);NMA-EIAR;11.48862;38.57913
5ebad1e14c06b707e80d647c;ENIDEWA (K.10);NMA-EIAR;11.43478;38.65332
5ebad1e14c06b707e80d647d;Kebele 20;NMA-EIAR;11.55305;38.22897
5ebad1e14c06b707e80d647e;Kebele 19;NMA-EIAR;11.52366;38.27114
5ebad1e14c06b707e80d647f;Kebele 21;NMA-EIAR;11.54144;38.31336
5ebad1e14c06b707e80d6480;Kebele 22;NMA-EIAR;11.58004;38.33813
5ebad1e14c06b707e80d6481;Kebele 23;NMA-EIAR;11.52587;38.3918
5ebad1e14c06b707e80d6482;Kebele 25;NMA-EIAR;11.48785;38.45177
5ebad1e14c06b707e80d6483;Kebele 24;NMA-EIAR;11.46666;38.361
5ebad1e14c06b707e80d6484;Kebele 14;NMA-EIAR;11.4718;38.29399
5ebad1e14c06b707e80d6485;Kebele 15;NMA-EIAR;11.48174;38.23879
5ebad1e14c06b707e80d6486;Kebele 16;NMA-EIAR;11.45838;38.1953
5ebad1e14c06b707e80d6487;Kebele 18;NMA-EIAR;11.44372;38.13812
5ebad1e14c06b707e80d6488;Kebele 17;NMA-EIAR;11.39164;38.15412
5ebad1e14c06b707e80d6489;Kebele 12;NMA-EIAR;11.41968;38.21653
5ebad1e14c06b707e80d648a;Kinde Meda;NMA-EIAR;11.41769;38.2719
5ebad1e14c06b707e80d648b;wefegie Mariyam;NMA-EIAR;11.40962;38.32797
5ebad1e14c06b707e80d648c;Kebele 26;NMA-EIAR;11.41994;38.39707
5ebad1e14c06b707e80d648d;Kebele 13;NMA-EIAR;11.44023;38.48065
5ebad1e14c06b707e80d648e;Kebele 27;NMA-EIAR;11.42011;38.54785
5ebad1e14c06b707e80d648f;Kebele 28;NMA-EIAR;11.36892;38.52647
5ebad1e14c06b707e80d6490;Kebele 30-02;NMA-EIAR;11.38471;38.46267
5ebad1e14c06b707e80d6491;Kebele 32-01;NMA-EIAR;11.38036;38.40573
5ebad1e14c06b707e80d6492;Kebele 10;NMA-EIAR;11.36539;38.29723
5ebad1e14c06b707e80d6493;Kebele 03;NMA-EIAR;11.34985;38.23824
5ebad1e14c06b707e80d6494;Kebele 02;NMA-EIAR;11.31542;38.19677
5ebad1e14c06b707e80d6495;Kebele 05;NMA-EIAR;11.19809;38.19752
5ebad1e14c06b707e80d6496;Kebele 04;NMA-EIAR;11.26807;38.24979
5ebad1e14c06b707e80d6497;Kebele 07;NMA-EIAR;11.27146;38.28913
5ebad1e14c06b707e80d6498;Kebele 09;NMA-EIAR;11.33815;38.34046
5ebad1e14c06b707e80d6499;Kebele 31;NMA-EIAR;11.33823;38.43797
5ebad1e14c06b707e80d649a;Kebele 29;NMA-EIAR;11.31131;38.58038
5ebad1e14c06b707e80d649b;Kebele 30;NMA-EIAR;11.25296;38.51005
5ebad1e14c06b707e80d649c;Kebele 33;NMA-EIAR;11.1542;38.475
5ebad1e14c06b707e80d649d;Kebele 34;NMA-EIAR;11.13535;38.40964
5ebad1e14c06b707e80d649e;Kebele 35;NMA-EIAR;11.23636;38.41721
5ebad1e14c06b707e80d649f;Kebele 37;NMA-EIAR;11.29586;38.38137
5ebad1e14c06b707e80d64a0;Kebele 36;NMA-EIAR;11.18677;38.35502
5ebad1e14c06b707e80d64a1;Kebele 08;NMA-EIAR;11.22898;38.32116
5ebad1e14c06b707e80d64a2;Kebele 06;NMA-EIAR;11.1794;38.26055
5ebad1e14c06b707e80d64a3;Lich Arida;NMA-EIAR;11.64001;37.88002
5ebad1e14c06b707e80d64a4;Ginida Temem;NMA-EIAR;11.66919;37.90463
5ebad1e14c06b707e80d64a5;Richa Qusiqam;NMA-EIAR;11.68188;37.9608
5ebad1e14c06b707e80d64a6;Belita Amijaye;NMA-EIAR;11.66391;38.0245
5ebad1e14c06b707e80d64a7;Liwaye Ashama Gedayat;NMA-EIAR;11.70589;38.10133
5ebad1e14c06b707e80d64a8;Wichi Basenika;NMA-EIAR;11.6904;38.14657
5ebad1e14c06b707e80d64a9;Elete Dibana;NMA-EIAR;11.6752;38.17595
5ebad1e14c06b707e80d64aa;Dat Giyorgis;NMA-EIAR;11.6607;38.21
5ebad1e14c06b707e80d64ab;Desiqa Agamoch;NMA-EIAR;11.61406;38.14303
5ebad1e14c06b707e80d64ac;Achiqan Dagot;NMA-EIAR;11.63434;38.10886
5ebad1e14c06b707e80d64ad;Mekane Eyesus;NMA-EIAR;11.65217;38.07424
5ebad1e14c06b707e80d64ae;Shemagile Giyorigis;NMA-EIAR;11.62407;37.9771
5ebad1e14c06b707e80d64af;Gib Asra Mariyam;NMA-EIAR;11.58736;37.94654
5ebad1e14c06b707e80d64b0;Ziguara;NMA-EIAR;11.57672;38.02078
5ebad1e14c06b707e80d64b1;Gosh Beret;NMA-EIAR;11.55013;37.9976
5ebad1e14c06b707e80d64b2;Den Golit Sositu Yequra;NMA-EIAR;11.57747;38.08049
5ebad1e14c06b707e80d64b3;Sholekt Mehalgie;NMA-EIAR;11.57978;38.14582
5ebad1e14c06b707e80d64b4;Anigachat Yemata Giyorigis;NMA-EIAR;11.60502;38.19398
5ebad1e14c06b707e80d64b5;Agona Kositet;NMA-EIAR;11.60725;38.23682
5ebad1e14c06b707e80d64b6;Durgie Mashint;NMA-EIAR;11.57182;38.19093
5ebad1e14c06b707e80d64b7;Lebet Eslam Ager;NMA-EIAR;11.54154;38.1764
5ebad1e14c06b707e80d64b8;Mikrie Kuskuam;NMA-EIAR;11.51275;38.17915
5ebad1e14c06b707e80d64b9;Qusiqam Hana;NMA-EIAR;11.48269;38.16692
5ebad1e14c06b707e80d64ba;Diniqusa;NMA-EIAR;11.50538;38.14436
5ebad1e14c06b707e80d64bb;Azazi Abato;NMA-EIAR;11.52237;38.11244
5ebad1e14c06b707e80d64bc;Berikut;NMA-EIAR;11.52344;38.06188
5ebad1e14c06b707e80d64bd;Debire Selam Ketatmibka;NMA-EIAR;11.46164;38.05106
5ebad1e14c06b707e80d64be;Agati Yesho;NMA-EIAR;11.43543;38.09002
5ebad1e14c06b707e80d64bf;Limon Zoge;NMA-EIAR;11.38195;38.03948
5ebad1e14c06b707e80d64c0;Deniba Qasaye;NMA-EIAR;11.35556;38.09351
5ebad1e14c06b707e80d64c1;Weyira Yebiriye;NMA-EIAR;11.28199;38.03379
5ebad1e14c06b707e80d64c2;Debire Zewana;NMA-EIAR;11.30231;38.1147
5ebad1e14c06b707e80d64c3;Asagira Abatirat;NMA-EIAR;11.26139;38.11226
5ebad1e14c06b707e80d64c4;Kometse Abeje;NMA-EIAR;11.22019;38.14871
5ebad1e14c06b707e80d64c5;Arush Wankat;NMA-EIAR;11.19855;38.08946
5ebad1e14c06b707e80d64c6;Madoye;NMA-EIAR;11.21847;38.03048
5ebad1e14c06b707e80d64c7;Mtslina Tana;NMA-EIAR;11.84202;37.53641
5ebad1e14c06b707e80d64c8;Zarina Jegina;NMA-EIAR;11.8261;37.59738
5ebad1e14c06b707e80d64c9;Geregera Gedam Eyesus;NMA-EIAR;11.76714;37.62725
5ebad1e14c06b707e80d64ca;Wenichet Abalibanos;NMA-EIAR;11.76296;37.53748
5ebad1e14c06b707e80d64cb;Koratafisana Mierafe Mariyam;NMA-EIAR;11.76948;37.48041
5ebad1e14c06b707e80d64cc;Kulalana Gitiba;NMA-EIAR;11.69182;37.5434
5ebad1e14c06b707e80d64cd;Emashenikorona Kedemit;NMA-EIAR;11.71261;37.5977
5ebad1e14c06b707e80d64ce;Tebabarina Aribayitu;NMA-EIAR;11.72829;37.68833
5ebad1e14c06b707e80d64cf;Huletu Wegedame;NMA-EIAR;11.67693;37.65257
5ebad1e14c06b707e80d64d0;Sheme Mariyam;NMA-EIAR;11.65152;37.73242
5ebad1e14c06b707e80d64d1;Degon Debiresina;NMA-EIAR;11.67111;37.78765
5ebad1e14c06b707e80d64d2;Gelawudiwos;NMA-EIAR;11.62786;37.8206
5ebad1e14c06b707e80d64d3;Witimera;NMA-EIAR;11.57568;37.79603
5ebad1e14c06b707e80d64d4;Meha Atsede Weyin;NMA-EIAR;11.56641;37.74424
5ebad1e14c06b707e80d64d5;Agar Wenidogeti;NMA-EIAR;11.58654;37.67828
5ebad1e14c06b707e80d64d6;Gohaza Jurina Demibeza;NMA-EIAR;11.61455;37.61493
5ebad1e14c06b707e80d64d7;Dewel Kokota;NMA-EIAR;11.60616;37.56731
5ebad1e14c06b707e80d64d8;Desirana Kibeb;NMA-EIAR;11.55765;37.57456
5ebad1e14c06b707e80d64d9;Wef Arigif Tamire;NMA-EIAR;11.52378;37.67699
5ebad1e14c06b707e80d64da;Desikwana Meligib;NMA-EIAR;11.47114;37.67226
5ebad1e14c06b707e80d64db;Degwat Tik Anibesa;NMA-EIAR;11.46588;37.73861
5ebad1e14c06b707e80d64dc;Sanana Digus Tan;NMA-EIAR;11.51544;37.79827
5ebad1e14c06b707e80d64dd;Deribana Wechit;NMA-EIAR;11.57803;37.87469
5ebad1e14c06b707e80d64de;Beloabo Tejimerer;NMA-EIAR;11.47056;37.81204
5ebad1e14c06b707e80d64df;Mecho Wenidebeser;NMA-EIAR;11.38948;37.71092
5ebad1e14c06b707e80d64e0;Afijina Melek;NMA-EIAR;11.32663;37.7556
5ebad1e14c06b707e80d64e1;Mesi Beqilo Filega;NMA-EIAR;11.51441;37.92107
5ebad1e14c06b707e80d64e2;Gota;NMA-EIAR;11.52998;37.98096
5ebad1e14c06b707e80d64e3;Gono;NMA-EIAR;11.49674;38.00685
5ebad1e14c06b707e80d64e4;Zebeye Muger;NMA-EIAR;11.47262;37.9769
5ebad1e14c06b707e80d64e5;Sheme Mosha;NMA-EIAR;11.43638;37.95816
5ebad1e14c06b707e80d64e6;Adma Denguasa;NMA-EIAR;11.40947;37.91861
5ebad1e14c06b707e80d64e7;Simet Sholaye;NMA-EIAR;11.43924;37.88376
5ebad1e14c06b707e80d64e8;Tikili Dinigay;NMA-EIAR;11.4206;37.8302
5ebad1e14c06b707e80d64e9;Afenkir;NMA-EIAR;11.37522;37.78767
5ebad1e14c06b707e80d64ea;Gult Bete Mariyam;NMA-EIAR;11.37174;37.83996
5ebad1e14c06b707e80d64eb;Aruta;NMA-EIAR;11.34517;37.87002
5ebad1e14c06b707e80d64ec;Merji Tenikot;NMA-EIAR;11.35595;37.89934
5ebad1e14c06b707e80d64ed;Yedidi Gimenge;NMA-EIAR;11.38443;37.94437
5ebad1e14c06b707e80d64ee;Deriba Betanisa;NMA-EIAR;11.40188;37.99861
5ebad1e14c06b707e80d64ef;Gishina;NMA-EIAR;11.33182;37.99936
5ebad1e14c06b707e80d64f0;Wofchame;NMA-EIAR;11.33868;37.95511
5ebad1e14c06b707e80d64f1;Atsede Mariyam;NMA-EIAR;11.29535;37.92736
5ebad1e14c06b707e80d64f2;Mukech;NMA-EIAR;11.24027;37.95675
5ebad1e14c06b707e80d64f3;Genete Mariyam;NMA-EIAR;11.25201;37.87307
5ebad1e14c06b707e80d64f4;Melat;NMA-EIAR;11.30082;37.86331
5ebad1e14c06b707e80d64f5;Leba Metaya;NMA-EIAR;11.30732;37.81199
60a114538141a31200f3e589;Rema;NMA-EIAR;10.274825;38.92074
60a114538141a31200f3e58a;Meranga;NMA-EIAR;10.199504;39.08713
60a114538141a31200f3e58b;Alem Ketema Town;NMA-EIAR;10.057355;38.99751
60a114538141a31200f3e58c;Fetira Town;NMA-EIAR;10.009591;38.88515
60a114538141a31200f3e58d;LEMI TOWN;NMA-EIAR;9.801555;38.91003
60a114538141a31200f3e58e;ENEWARI TOWN;NMA-EIAR;9.894016;39.1476
60a114538141a31200f3e58f;JIHUR TOWN;NMA-EIAR;10.018596;39.24939
60a114538141a31200f3e590;Mehal Meda Town;NMA-EIAR;10.31228;39.65928
60a114538141a31200f3e591;RABEL TOWN;NMA-EIAR;10.54858;39.60126
60a114538141a31200f3e592;Mekoye Town;NMA-EIAR;10.697809;39.78241
60a114538141a31200f3e593;Majete Town;NMA-EIAR;10.492818;39.86344
60a114538141a31200f3e594;Kara kORE Town;NMA-EIAR;10.423881;39.93609
60a114538141a31200f3e595;Ataye Town;NMA-EIAR;10.348843;39.96502
60a114538141a31200f3e596;Molale Town;NMA-EIAR;10.12221;39.66249
60a114538141a31200f3e597;Mezezo Town;NMA-EIAR;9.936235;39.73146
60a114538141a31200f3e598;Debre Sina Town;NMA-EIAR;9.84944;39.76234
60a114538141a31200f3e599;Sela Dngay Town;NMA-EIAR;9.955037;39.63185
60a114538141a31200f3e59a;Shewa robit Town;NMA-EIAR;10.006861;39.90596
60a114538141a31200f3e59b;CHACHA TOWN;NMA-EIAR;9.53133;39.45782
60a114538141a31200f3e59c;Kotu Town;NMA-EIAR;9.385716;39.39463
60a114538141a31200f3e59d;Ginager Town;NMA-EIAR;9.339864;39.57583
60a114538141a31200f3e59e;ALIYO AMBA TOWN;NMA-EIAR;9.566042;39.79311
60a114538141a31200f3e59f;GORBELA TOWN;NMA-EIAR;9.596122;39.73394
60a114538141a31200f3e5a0;Sholagebeya Town;NMA-EIAR;9.211324;39.40423
60a114538141a31200f3e5a1;Meteteh Bila;NMA-EIAR;9.198427;39.70755
60a114538141a31200f3e5a2;Balchi Town;NMA-EIAR;8.919747;39.37914
60a114538141a31200f3e5a3;Arerti Town;NMA-EIAR;8.92869;39.42534
60a114538141a31200f3e5a4;Gudobert Town;NMA-EIAR;9.800375;39.67715
60a114538141a31200f3e5a5;Debrebrehan Town;NMA-EIAR;9.664373;39.52584
60a114538141a31200f3e5a6;Zemero Town;NMA-EIAR;10.224809;39.44618
60a114538141a31200f3e5a7;DENEBA TOWN;NMA-EIAR;9.751459;39.1926
60a114538141a31200f3e5a8;Armani;NMA-EIAR;9.883722;39.83316
60a114538141a31200f3e5a9;Dokakit;NMA-EIAR;9.853367;39.80853
60a114538141a31200f3e5aa;Sina zuria;NMA-EIAR;9.849012;39.77641
60a114538141a31200f3e5ab;Debre maza;NMA-EIAR;9.817368;39.75402
60a114538141a31200f3e5ac;Wefwasha;NMA-EIAR;9.785603;39.78111
60a114538141a31200f3e5ad;Wanza beretina Sefedmeda;NMA-EIAR;9.785947;39.82355
60a114538141a31200f3e5ae;Wefayzorish;NMA-EIAR;9.842741;39.856
60a114538141a31200f3e5af;Eltokena mengist;NMA-EIAR;9.823585;39.87688
60a114538141a31200f3e5b0;Agamber;NMA-EIAR;9.781333;39.90897
60a114538141a31200f3e5b1;Wefwasha Yemengist den kilil;NMA-EIAR;9.785055;39.74933
60a114538141a31200f3e5b2;Gan Arda;NMA-EIAR;9.951297;39.33711
60a114538141a31200f3e5b3;Segatna Jngado;NMA-EIAR;9.95879;39.41106
60a114538141a31200f3e5b4;Engida Washa;NMA-EIAR;9.921921;39.45156
60a114538141a31200f3e5b5;Guyi Tsegereda;NMA-EIAR;9.880929;39.42859
60a114538141a31200f3e5b6;Aba Bersoma;NMA-EIAR;9.885701;39.51052
60a114538141a31200f3e5b7;Brka;NMA-EIAR;9.970369;39.50039
60a114538141a31200f3e5b8;Fela Genet;NMA-EIAR;9.940666;39.5672
60a114538141a31200f3e5b9;Zub Amba;NMA-EIAR;9.979099;39.60713
60a114538141a31200f3e5ba;Wedera;NMA-EIAR;9.975634;39.67725
60a114538141a31200f3e5bb;Feres Megalebya;NMA-EIAR;9.923977;39.63633
60a114538141a31200f3e5bc;Asofe;NMA-EIAR;9.876611;39.57366
60a114538141a31200f3e5bd;ALIYU AMBA ZURIYA;NMA-EIAR;9.564801;39.7832
60a114538141a31200f3e5be;LAY DEBIDABO;NMA-EIAR;9.591669;39.75659
60a114538141a31200f3e5bf;CHEFA;NMA-EIAR;9.556866;39.73336
60a114538141a31200f3e5c0;DEREFO;NMA-EIAR;9.542883;39.69616
60a114538141a31200f3e5c1;DAWAY;NMA-EIAR;9.488056;39.67615
60a114538141a31200f3e5c2;WEDERA;NMA-EIAR;9.499228;39.73163
60a114538141a31200f3e5c3;GORIGO;NMA-EIAR;9.506025;39.77772
60a114538141a31200f3e5c4;WASHA;NMA-EIAR;9.5389;39.8259
60a114538141a31200f3e5c5;ZOMA;NMA-EIAR;9.468271;39.80332
60a114538141a31200f3e5c6;WIBIT GOLA;NMA-EIAR;9.44306;39.7246
60a114538141a31200f3e5c7;Ayerara Ena Gudeguade Weha;NMA-EIAR;9.421866;39.79836
60a114538141a31200f3e5c8;Mesechana Zembo;NMA-EIAR;9.735702;39.75821
60a114538141a31200f3e5c9;Memehert Lay Gorbela;NMA-EIAR;9.652022;39.77147
60a114538141a31200f3e5ca;Tulefa;NMA-EIAR;9.248637;39.22773
60a114538141a31200f3e5cb;Koremashe;NMA-EIAR;9.225409;39.29816
60a114538141a31200f3e5cc;Sherer;NMA-EIAR;9.188952;39.26203
60a114538141a31200f3e5cd;Weynaemba;NMA-EIAR;9.180768;39.29154
60a114538141a31200f3e5ce;Yelet;NMA-EIAR;9.177926;39.31698
60a114538141a31200f3e5cf;Senbelet Ena Wagign;NMA-EIAR;9.251772;39.30451
60a114538141a31200f3e5d0;Yenectoh;NMA-EIAR;9.248221;39.36955
60a114538141a31200f3e5d1;Gujbel;NMA-EIAR;9.304175;39.41541
60a114538141a31200f3e5d2;Sekoru;NMA-EIAR;9.289112;39.48158
60a114538141a31200f3e5d3;Remana Dire;NMA-EIAR;10.303357;38.89386
60a114538141a31200f3e5d4;Azemana Shifere Amba;NMA-EIAR;10.310208;38.97713
60a114538141a31200f3e5d5;Digombiya Gobabit;NMA-EIAR;10.340901;39.04252
60a114538141a31200f3e5d6;Korkerena Sembelet;NMA-EIAR;10.280662;39.08929
60a114538141a31200f3e5d7;Ketemana Dere;NMA-EIAR;10.30622;39.13215
60a114538141a31200f3e5d8;Kelad Giyorgis;NMA-EIAR;10.275516;39.15275
60a114538141a31200f3e5d9;Behara;NMA-EIAR;10.254425;39.19237
60a114538141a31200f3e5da;Sende Wegerar;NMA-EIAR;10.22801;39.11416
60a114538141a31200f3e5db;Sorch;NMA-EIAR;10.239077;39.08113
60a114538141a31200f3e5dc;Monaze;NMA-EIAR;10.266213;39.03503
60a114538141a31200f3e5dd;Tebabitena Kure Bayemoda;NMA-EIAR;10.264948;38.96936
60a114538141a31200f3e5de;Webrena Afer Bayene;NMA-EIAR;10.228581;38.93051
60a114538141a31200f3e5df;Kera Mejit;NMA-EIAR;10.205587;38.87894
60a114538141a31200f3e5e0;Alabo Biraba;NMA-EIAR;10.152479;38.86389
60a114538141a31200f3e5e1;Dengore Guream;NMA-EIAR;10.170328;38.95067
60a114538141a31200f3e5e2;Tegora;NMA-EIAR;10.18377;38.99676
60a114538141a31200f3e5e3;Garda;NMA-EIAR;10.222409;39.02341
60a114538141a31200f3e5e4;Werke;NMA-EIAR;10.172102;39.046
60a114538141a31200f3e5e5;Agemana Embibelo;NMA-EIAR;10.186011;39.10592
60a114538141a31200f3e5e6;Lekekabe;NMA-EIAR;10.203938;39.14721
60a114538141a31200f3e5e7;Agricultural Researh Center;NMA-EIAR;9.602897;39.51006
60a114538141a31200f3e5e8;Goranda Mariyam Serka;NMA-EIAR;10.030472;38.74063
60a114538141a31200f3e5e9;Kusaye Chefe;NMA-EIAR;10.059832;38.81856
60a114538141a31200f3e5ea;Buye Gedejewa;NMA-EIAR;9.998707;38.82794
60a114538141a31200f3e5eb;Werkamba Remesht;NMA-EIAR;10.062616;38.87558
60a114538141a31200f3e5ec;Gideb Werego;NMA-EIAR;10.089514;38.91928
60a114538141a31200f3e5ed;Agerit Kumamba;NMA-EIAR;10.11124;38.95964
60a114538141a31200f3e5ee;Koso Terehana;NMA-EIAR;10.116773;39.00565
60a114538141a31200f3e5ef;Sisi Amba;NMA-EIAR;10.123886;39.04825
60a114538141a31200f3e5f0;Zeyita Magas;NMA-EIAR;10.0895;39.07217
60a114538141a31200f3e5f1;Sergina;NMA-EIAR;10.10831;39.10066
60a114538141a31200f3e5f2;Korargina;NMA-EIAR;10.095818;39.13137
60a114538141a31200f3e5f3;Jema Nunuta;NMA-EIAR;10.139051;39.13331
60a114538141a31200f3e5f4;Gew Morgazh;NMA-EIAR;10.133783;39.18829
60a114538141a31200f3e5f5;Amobat;NMA-EIAR;10.126189;39.24017
60a114538141a31200f3e5f6;Koratamo;NMA-EIAR;10.064848;39.14789
60a114538141a31200f3e5f7;Giret;NMA-EIAR;10.031838;39.08492
60a114538141a31200f3e5f8;Ofuna Sibawasha;NMA-EIAR;10.059863;39.02508
60a114538141a31200f3e5f9;Lijagba Amden;NMA-EIAR;10.049154;38.96966
60a114538141a31200f3e5fa;Geb Zemoy;NMA-EIAR;10.005324;38.97748
60a114538141a31200f3e5fb;Delema Anshebegul;NMA-EIAR;10.000245;39.04095
60a114538141a31200f3e5fc;Afezez  Berkato;NMA-EIAR;9.964661;39.00603
60a114538141a31200f3e5fd;Geren;NMA-EIAR;9.93711;38.95753
60a114538141a31200f3e5fe;Yidemeko Merihezh;NMA-EIAR;9.968745;38.91779
60a114538141a31200f3e5ff;Harogenda Sobage;NMA-EIAR;9.972428;38.87486
60a114538141a31200f3e600;YIDINOBERESA;NMA-EIAR;9.906375;38.83204
60a114538141a31200f3e601;LAMGENO;NMA-EIAR;9.839096;38.83376
60a114538141a31200f3e602;GEZAWASHANA DALOTA;NMA-EIAR;9.875724;38.89338
60a114538141a31200f3e603;SALAYISHINA DIREKU;NMA-EIAR;9.852282;38.92684
60a114538141a31200f3e604;DIRAMU;NMA-EIAR;9.795993;38.89404
60a114538141a31200f3e605;WEKONAFKIRESELAM;NMA-EIAR;9.775481;38.85367
60a114538141a31200f3e606;DENBINA GRARGE;NMA-EIAR;9.752499;38.91477
60a114538141a31200f3e607;MEQELONAINDOKIYA;NMA-EIAR;9.763928;38.97411
60a114538141a31200f3e608;GOSHWUHANAQEQ;NMA-EIAR;9.829816;38.94767
60a114538141a31200f3e609;KARAMBANA MILTAMBA;NMA-EIAR;9.82461;38.98496
60a114538141a31200f3e60a;YETNORASETANKA;NMA-EIAR;9.814757;39.04106
60a114538141a31200f3e60b;LAM WASHA;NMA-EIAR;9.968307;39.11671
60a114538141a31200f3e60c;SHEMA;NMA-EIAR;9.999847;39.14373
60a114538141a31200f3e60d;ZATINAY KORO;NMA-EIAR;10.029078;39.1778
60a114538141a31200f3e60e;ARIS;NMA-EIAR;10.058684;39.23152
60a114538141a31200f3e60f;RIMIBIK;NMA-EIAR;10.036423;39.28489
60a114538141a31200f3e610;JIHUR ZURIYA;NMA-EIAR;10.008819;39.23709
60a114538141a31200f3e611;WEYIRA AMBA;NMA-EIAR;9.962468;39.21594
60a114538141a31200f3e612;BOLO;NMA-EIAR;9.933147;39.16598
60a114538141a31200f3e613;YIMEDEB;NMA-EIAR;9.932658;39.07346
60a114538141a31200f3e614;YEWELO;NMA-EIAR;9.89055;39.00646
60a114538141a31200f3e615;ZENA MARIKOS;NMA-EIAR;9.892775;39.09151
60a114538141a31200f3e616;GERIBA;NMA-EIAR;9.868931;39.15101
60a114538141a31200f3e617;KUSAYE;NMA-EIAR;9.904785;39.23051
60a114538141a31200f3e618;MANGUDO;NMA-EIAR;9.8499;39.19888
60a114538141a31200f3e619;GORADE;NMA-EIAR;9.851546;39.07885
60a114538141a31200f3e61a;Amed  Washa;NMA-EIAR;10.424378;39.5413
60a114538141a31200f3e61b;Anazted;NMA-EIAR;10.472316;39.70513
60a114538141a31200f3e61c;Sera Gedel;NMA-EIAR;10.530701;39.78124
60a114538141a31200f3e61d;Wezed;NMA-EIAR;10.478346;39.79575
60a114538141a31200f3e61e;Dergagne;NMA-EIAR;10.397942;39.74386
60a114538141a31200f3e61f;Gragne;NMA-EIAR;10.400434;39.68799
60a114538141a31200f3e620;Qurya;NMA-EIAR;10.402264;39.64388
60a114538141a31200f3e621;Arego;NMA-EIAR;10.367335;39.59498
60a114538141a31200f3e622;Shola;NMA-EIAR;10.390485;39.50443
60a114538141a31200f3e623;Talt;NMA-EIAR;10.336303;39.44472
60a114538141a31200f3e624;Geya;NMA-EIAR;10.357596;39.50917
60a114538141a31200f3e625;Tsahay Sina;NMA-EIAR;10.307426;39.57423
60a114538141a31200f3e626;Negasi Amba;NMA-EIAR;10.323107;39.632
60a114538141a31200f3e627;Chare;NMA-EIAR;10.350697;39.72681
60a114538141a31200f3e628;Qowanguwa;NMA-EIAR;10.298201;39.77172
60a114538141a31200f3e629;AteDasGedanbo;NMA-EIAR;10.31766;39.69719
60a114538141a31200f3e62a;Keladuha;NMA-EIAR;10.266097;39.69131
60a114538141a31200f3e62b;Kewosa;NMA-EIAR;10.256815;39.60779
60a114538141a31200f3e62c;Mesale Mariam;NMA-EIAR;10.251371;39.53319
60a114538141a31200f3e62d;Amde Guya  Beg Erbata;NMA-EIAR;10.315048;39.52123
60a114538141a31200f3e62e;Amed Guya;NMA-EIAR;10.284661;39.49529
60a114538141a31200f3e62f;Guasa Park;NMA-EIAR;10.378168;39.78876
60a114538141a31200f3e630;GOLITA MEZERAZIR;NMA-EIAR;10.611069;39.49744
60a114538141a31200f3e631;Mogena Korebetete;NMA-EIAR;10.603839;39.55134
60a114538141a31200f3e632;DEL;NMA-EIAR;10.643031;39.59602
60a114538141a31200f3e633;GIRAR AMIBA;NMA-EIAR;10.683384;39.66271
60a114538141a31200f3e634;WEJIT;NMA-EIAR;10.604566;39.64731
60a114538141a31200f3e635;Darat;NMA-EIAR;10.556476;39.58344
60a114538141a31200f3e636;FERES BET;NMA-EIAR;10.498089;39.51846
60a114538141a31200f3e637;WEFILEK;NMA-EIAR;10.49867;39.60003
60a114538141a31200f3e638;ASINAFIT;NMA-EIAR;10.556352;39.67649
60a114538141a31200f3e639;ARATA WETEFE;NMA-EIAR;10.554071;39.71533
60a114538141a31200f3e63a;Shebeto;NMA-EIAR;10.675986;39.72774
60a114538141a31200f3e63b;Mekdela;NMA-EIAR;10.712668;39.77941
60a114538141a31200f3e63c;Ateko;NMA-EIAR;10.689251;39.77956
60a114538141a31200f3e63d;Afso Zuriya;NMA-EIAR;10.671822;39.79379
60a114538141a31200f3e63e;Kure Gedel;NMA-EIAR;10.654676;39.78163
60a114538141a31200f3e63f;Harbuwelde;NMA-EIAR;10.677616;39.85167
60a114538141a31200f3e640;Asolele Kelebet;NMA-EIAR;10.628915;39.77999
60a114538141a31200f3e641;Geshoge;NMA-EIAR;10.622665;39.72415
60a114538141a31200f3e642;Washa Negat;NMA-EIAR;10.570917;39.76027
60a114538141a31200f3e643;Chechek Zuriya;NMA-EIAR;10.611798;39.8057
60a114538141a31200f3e644;Hayelemariyam Machora;NMA-EIAR;10.592397;39.83316
60a114538141a31200f3e645;Getem Gojo Weha;NMA-EIAR;10.556228;39.832
60a114538141a31200f3e646;Sarambadaguche;NMA-EIAR;10.526055;39.84144
60a114538141a31200f3e647;Ankarso Bekob;NMA-EIAR;10.516892;39.87549
60a114538141a31200f3e648;Aglamajete;NMA-EIAR;10.481775;39.8619
60a114538141a31200f3e649;Lulgea Jat;NMA-EIAR;10.448322;39.82019
60a114538141a31200f3e64a;Dulit Yegelda;NMA-EIAR;10.426888;39.86404
60a114538141a31200f3e64b;Miramir Selelo;NMA-EIAR;10.473701;39.89741
60a114538141a31200f3e64c;Kore Meda;NMA-EIAR;10.454803;39.92592
60a114538141a31200f3e64d;Hora Deldeye;NMA-EIAR;10.408054;39.91239
60a114538141a31200f3e64e;Kara Legoma;NMA-EIAR;10.381232;39.89189
60a114538141a31200f3e64f;Meskel Ber;NMA-EIAR;10.398597;39.82949
60a114538141a31200f3e650;Layegnaw Sar Amba Yeserdo;NMA-EIAR;10.352201;39.85741
60a114538141a31200f3e651;LagnawAtayena Tachingaw Sar Am;NMA-EIAR;10.353253;39.91322
60a114538141a31200f3e652;Ber Gibi;NMA-EIAR;10.321665;39.90254
60a114538141a31200f3e653;Mehal Wenz;NMA-EIAR;10.324305;39.83901
60a114538141a31200f3e654;Ambo Ber Wetaga;NMA-EIAR;10.277303;39.84442
60a114538141a31200f3e655;Yemliwo;NMA-EIAR;10.295694;39.90811
60a114538141a31200f3e656;Alala;NMA-EIAR;10.26668;39.89172
60a114538141a31200f3e657;Ashiquaye Sherif;NMA-EIAR;10.218431;39.89355
60a114538141a31200f3e658;Arso Amba Ena Magna;NMA-EIAR;10.17358;39.91865
60a114538141a31200f3e659;Zembo;NMA-EIAR;10.158839;39.88576
60a114538141a31200f3e65a;Jeweha Negeso;NMA-EIAR;10.108183;39.95338
60a114538141a31200f3e65b;Yeselam Fere  016;NMA-EIAR;10.23135;39.70791
60a114538141a31200f3e65c;Yejeginochi Amba;NMA-EIAR;10.22909;39.76348
60a114538141a31200f3e65d;Yenigatkokeb(014);NMA-EIAR;10.226081;39.81556
60a114538141a31200f3e65e;Yeselam wegagen (013);NMA-EIAR;10.186969;39.79592
60a114538141a31200f3e65f;Lemlem Amba(012);NMA-EIAR;10.139818;39.7704
60a114538141a31200f3e660;Yedilfere(07);NMA-EIAR;10.169275;39.73442
60a114538141a31200f3e661;Dilbetigel(04);NMA-EIAR;10.157279;39.64303
60a114538141a31200f3e662;Delfanna(06);NMA-EIAR;10.122807;39.69773
60a114538141a31200f3e663;Wegagen(010);NMA-EIAR;10.09139;39.74337
60a114538141a31200f3e664;Dilchebo(011);NMA-EIAR;10.060433;39.71225
60a114538141a31200f3e665;Selam Betgel(018);NMA-EIAR;10.067174;39.66616
60a114538141a31200f3e666;Yedil Chora {09;NMA-EIAR;10.032237;39.62108
60a114538141a31200f3e667;Tihun Abeba(02);NMA-EIAR;10.094864;39.62818
60a114538141a31200f3e668;Yelimat chora(03);NMA-EIAR;10.121391;39.61598
60a114538141a31200f3e669;Dilabsari (023);NMA-EIAR;10.061717;39.54421
60a114538141a31200f3e66a;Dilabsari (023);NMA-EIAR;10.028765;39.57216
60a114538141a31200f3e66b;Yelmat Filma (024);NMA-EIAR;10.018904;39.52614
60a114538141a31200f3e66c;Ankoy Meda(025);NMA-EIAR;10.014922;39.45597
60a114538141a31200f3e66d;Ebut Fire (026);NMA-EIAR;9.998576;39.39064
60a114538141a31200f3e66e;Quashene zena;NMA-EIAR;10.048787;39.74921
60a114538141a31200f3e66f;Gefetena;NMA-EIAR;10.030256;39.71347
60a114538141a31200f3e670;Ytana koste amba;NMA-EIAR;10.00962;39.69135
60a114538141a31200f3e671;Wein Ber;NMA-EIAR;9.9876;39.73293
60a114538141a31200f3e672;Kosober;NMA-EIAR;9.922878;39.70326
60a114538141a31200f3e673;Adoke;NMA-EIAR;9.934946;39.72587
60a114538141a31200f3e674;Yzaba weyin;NMA-EIAR;9.895189;39.75965
60a114538141a31200f3e675;Shotel amba;NMA-EIAR;9.928496;39.7868
60a114538141a31200f3e676;Argagana Asfachew;NMA-EIAR;9.930402;39.8316
60a114538141a31200f3e677;Mafud;NMA-EIAR;9.90973;39.87672
60a114538141a31200f3e678;Begoch Gat;NMA-EIAR;9.891592;39.66627
60a114538141a31200f3e679;Amashana Tarma Ber;NMA-EIAR;9.865251;39.72344
60a114538141a31200f3e67a;Wersena kolomuya;NMA-EIAR;10.139381;39.82649
60a114538141a31200f3e67b;Ashegnena Yegeda;NMA-EIAR;10.110163;39.79558
60a114538141a31200f3e67c;Wekfele;NMA-EIAR;10.069994;39.81073
60a114538141a31200f3e67d;Tere;NMA-EIAR;10.093484;39.86273
60a114538141a31200f3e67e;Birbirina gelgelu;NMA-EIAR;10.140179;39.86484
60a114538141a31200f3e67f;Yelen;NMA-EIAR;10.075121;39.90313
60a114538141a31200f3e680;Abomsana wuruba;NMA-EIAR;10.04193;39.91653
60a114538141a31200f3e681;Mengistina wedaj;NMA-EIAR;10.030578;39.82535
60a114538141a31200f3e682;Dorsimet;NMA-EIAR;10.045537;39.7788
60a114538141a31200f3e683;Aya ber;NMA-EIAR;10.00478;39.76988
60a114538141a31200f3e684;Debir;NMA-EIAR;9.95288;39.75461
60a114538141a31200f3e685;Alolo wenberiya;NMA-EIAR;9.97525;39.80026
60a114538141a31200f3e686;Agam ber;NMA-EIAR;10.013073;39.86036
60a114538141a31200f3e687;Jib amba;NMA-EIAR;9.967786;39.85783
60a114538141a31200f3e688;Mariyena insirt;NMA-EIAR;9.974973;39.92186
60a114538141a31200f3e689;Korebta;NMA-EIAR;9.904925;39.92196
60a114538141a31200f3e68a;Deberena Jegol;NMA-EIAR;9.973618;39.97889
60a114538141a31200f3e68b;Madina;NMA-EIAR;9.922267;39.97088
60a114538141a31200f3e68c;Sefiberetina;NMA-EIAR;9.948101;40.0415
60a114538141a31200f3e68d;Abay atir;NMA-EIAR;9.888112;40.02262
60a114538141a31200f3e68e;Jimderena gur;NMA-EIAR;9.864854;39.96565
60a114538141a31200f3e68f;Kure beret;NMA-EIAR;9.814682;39.98683
60a114538141a31200f3e690;Yemengist den;NMA-EIAR;10.116011;39.9077
60a114538141a31200f3e691;Yemengist den;NMA-EIAR;10.102307;39.90355
60a114538141a31200f3e692;CHANICHONA RUKISI;NMA-EIAR;9.512186;39.31463
60a114538141a31200f3e693;ADADI;NMA-EIAR;9.539427;39.36561
60a114538141a31200f3e694;CHEFA NEN;NMA-EIAR;9.568311;39.4553
60a114538141a31200f3e695;TSIGEREDA;NMA-EIAR;9.560847;39.56878
60a114538141a31200f3e696;ADIS AMBA;NMA-EIAR;9.550633;39.61669
60a114538141a31200f3e697;Gelila Ena Atura;NMA-EIAR;9.491415;39.61497
60a114538141a31200f3e698;KITALEGN;NMA-EIAR;9.503874;39.54281
60a114538141a31200f3e699;Bura Ena Totosie;NMA-EIAR;9.484472;39.47391
60a114538141a31200f3e69a;SERITI;NMA-EIAR;9.515484;39.42535
60a114538141a31200f3e69b;CHEKI;NMA-EIAR;9.491197;39.38581
